~VERSION	INFORMATION																						
VERS.	2	:Log	ASCII	Standard	-	VERSION	2																
WRAP.	NO	:One	Line	per	depth	step																	
PROD.	YuXH	:LAS	Producer																				
PROG.	YuXH2LAS	1	:LAS	Program	name	and	version																
CREA.	8/19/2013	15:01	:LAS	Creation	date	{YYYY/MM/DD	hh:mm}																
SOURCE.		:Data	File	Name																			
#--------------------------------------------------																							
~WELL	INFORMATION																						
#MENM.UNIT	DATA	DESCRIPTION																					
#----	------	--------------	-----------------------------																				
STRT	.m	2980.8999	:START	DEPTH																			
STOP	.m	4420.1099	:STOP	DEPTH																			
STEP	.m	0.1524	:STEP																				
NULL	.	-9999.9	:NULL	VALUE																			
COMP	.	unknown	:COMPANY																				
WELL	.	unknown	:WELL																				
FLD	.	unknown	:FIELD																				
LOC	.	unknown	:LOCATION																				
CNTY	.	unknown	:COUNTY																				
STAT	.	unknown	:STATE																				
CTRY	.	unknown	:COUNTRY																				
API	.	unknown	:API	NUMBER																			
UWI	.	unknown	:UNIQUE	WELL	ID																		
DATE	.	unknown	:LOG	DATE																			
SRVC	.	YuXH	:SERVICE	COMPANY																			
GDAT	.	unknown	:GeoDetic	Datum																			
#-----------------------------------------------------------------------------																							
~PARAMETER	INFORMATION																						
#MNEM.UNIT	VALUE	DESCRIPTION																					
#----	-----	--------------------	------------------------																				
RUN	.NONE	1	:RUN	NUMBER																			
LATI	.DEG	0	:LATITUDE																				
LONG	.DEG	0	:X-COORDINATE	OF	WELL	HEAD																	
XWELL.M	0	:Y-COORDINATE	OF	WELL	HEAD																		
YWELL.M	0	:LONGITUDE																					
PDAT	.M	0	:Permanent	Datum																			
EPD	.M	0	:Elevation	of	Permanent	Datum	above	Mean	Sea	Level													
LMF	.M	0	:Logging	Measured	From	(Name	of	Logging	Elevation	Reference)													
APD	.M	0	:Elevation	of	Depth	Reference	(LMF)	above	Permanent	Datum													
#-----------------------------------------------------------------------------																							
~CURVE	INFORMATION																						
#MNEM.UNIT	API	CODE	DESCRIPTION																				
#----	-----	--------	-----------------------																				
DEPT	.m	:	DEPTH	{F10.3}																			
DTC	.us/ft	:	DTC	{F10.3}																			
vpvs	.API	:	vpvs	{F10.3}																			
DTs	.us/ft	:	DTs	{F10.3}																			
DTst	.us/ft	:	DTst	{F10.3}																			
BMOD	.MPa	:	BMOD	{F10.3}																			
BULK	.MPa	:	BULK	{F10.3}																			
DMMI	.g/cm3	:	DMMI	{F10.3}																			
DMMX	.g/cm3	:	DMMX	{F10.3}																			
FI	.%	:	FI	{F10.3}																			
FRACP	.MPa	:	FRACP	{F10.3}																			
POIS	.%	:	POIS	{F10.3}																			
pp	.MPa	:	pp	{F10.3}																			
RL	.MPa	:	RL	{F10.3}																			
RMSC	.g/cm3	:	RMSC	{F10.3}																			
SH1	.MPa	:	SH1	{F10.3}																			
SH2	.MPa	:	SH2	{F10.3}																			
SHV	.MPa	:	SHV	{F10.3}																			
SMOD	.MPa	:	SMOD	{F10.3}																			
SPOIS	.%	:	SPOIS	{F10.3}																			
ST	.MPa	:	ST	{F10.3}																			
SYMOD	.MPa	:	SYMOD	{F10.3}																			
YMOD	.MPa	:	YMOD	{F10.3}																			
#-----------------------------------------------------------------------------																							
#																							
#	INDEX	DTC	vpvs	DTs	DTst	BMOD	BULK	DMMI	DMMX	FI	FRACP	POIS	pp	RL	RMSC	SH1	SH2	SHV	SMOD	SPOIS	ST	SYMOD	YMOD
#																							
~ASCII	DATA	SECTION																					
	2980.8999	-9999.90039	-9999.90039	-9999.90039	-9999.90039	-9999.90039	-9999.90039	-9999.90039	-9999.90039	-9999.90039	-9999.90039	-9999.90039	-9999.90039	-9999.90039	-9999.90039	-9999.90039	-9999.90039	-9999.90039	-9999.90039	-9999.90039	-9999.90039	-9999.90039	-9999.90039
	2981.0523	-9999.90039	-9999.90039	-9999.90039	-9999.90039	-9999.90039	-9999.90039	-9999.90039	-9999.90039	-9999.90039	-9999.90039	-9999.90039	-9999.90039	-9999.90039	-9999.90039	-9999.90039	-9999.90039	-9999.90039	-9999.90039	-9999.90039	-9999.90039	-9999.90039	-9999.90039
	2981.2047	-9999.90039	-9999.90039	-9999.90039	-9999.90039	-9999.90039	-9999.90039	-9999.90039	-9999.90039	-9999.90039	-9999.90039	-9999.90039	-9999.90039	-9999.90039	-9999.90039	-9999.90039	-9999.90039	-9999.90039	-9999.90039	-9999.90039	-9999.90039	-9999.90039	-9999.90039
	2981.3571	-9999.90039	-9999.90039	-9999.90039	-9999.90039	-9999.90039	-9999.90039	-9999.90039	-9999.90039	-9999.90039	-9999.90039	-9999.90039	-9999.90039	-9999.90039	-9999.90039	-9999.90039	-9999.90039	-9999.90039	-9999.90039	-9999.90039	-9999.90039	-9999.90039	-9999.90039
	2981.5095	-9999.90039	-9999.90039	-9999.90039	-9999.90039	-9999.90039	-9999.90039	-9999.90039	-9999.90039	-9999.90039	-9999.90039	-9999.90039	-9999.90039	-9999.90039	-9999.90039	-9999.90039	-9999.90039	-9999.90039	-9999.90039	-9999.90039	-9999.90039	-9999.90039	-9999.90039
	2981.6619	-9999.90039	-9999.90039	-9999.90039	-9999.90039	-9999.90039	-9999.90039	-9999.90039	-9999.90039	-9999.90039	-9999.90039	-9999.90039	-9999.90039	-9999.90039	-9999.90039	-9999.90039	-9999.90039	-9999.90039	-9999.90039	-9999.90039	-9999.90039	-9999.90039	-9999.90039
	2981.8143	-9999.90039	-9999.90039	-9999.90039	-9999.90039	-9999.90039	-9999.90039	-9999.90039	-9999.90039	-9999.90039	-9999.90039	-9999.90039	-9999.90039	-9999.90039	-9999.90039	-9999.90039	-9999.90039	-9999.90039	-9999.90039	-9999.90039	-9999.90039	-9999.90039	-9999.90039
	2981.9667	-9999.90039	-9999.90039	-9999.90039	-9999.90039	-9999.90039	-9999.90039	-9999.90039	-9999.90039	-9999.90039	-9999.90039	-9999.90039	-9999.90039	-9999.90039	-9999.90039	-9999.90039	-9999.90039	-9999.90039	-9999.90039	-9999.90039	-9999.90039	-9999.90039	-9999.90039
	2982.1191	-9999.90039	-9999.90039	-9999.90039	-9999.90039	-9999.90039	-9999.90039	-9999.90039	-9999.90039	-9999.90039	-9999.90039	-9999.90039	-9999.90039	-9999.90039	-9999.90039	-9999.90039	-9999.90039	-9999.90039	-9999.90039	-9999.90039	-9999.90039	-9999.90039	-9999.90039
	2982.2715	-9999.90039	-9999.90039	-9999.90039	-9999.90039	-9999.90039	-9999.90039	-9999.90039	-9999.90039	-9999.90039	-9999.90039	-9999.90039	-9999.90039	-9999.90039	-9999.90039	-9999.90039	-9999.90039	-9999.90039	-9999.90039	-9999.90039	-9999.90039	-9999.90039	-9999.90039
	2982.4239	-9999.90039	-9999.90039	-9999.90039	-9999.90039	-9999.90039	-9999.90039	-9999.90039	-9999.90039	-9999.90039	-9999.90039	-9999.90039	-9999.90039	-9999.90039	-9999.90039	-9999.90039	-9999.90039	-9999.90039	-9999.90039	-9999.90039	-9999.90039	-9999.90039	-9999.90039
	2982.5763	-9999.90039	-9999.90039	-9999.90039	-9999.90039	-9999.90039	-9999.90039	-9999.90039	-9999.90039	-9999.90039	-9999.90039	-9999.90039	-9999.90039	-9999.90039	-9999.90039	-9999.90039	-9999.90039	-9999.90039	-9999.90039	-9999.90039	-9999.90039	-9999.90039	-9999.90039
	2982.7287	-9999.90039	-9999.90039	-9999.90039	-9999.90039	-9999.90039	-9999.90039	-9999.90039	-9999.90039	-9999.90039	-9999.90039	-9999.90039	-9999.90039	-9999.90039	-9999.90039	-9999.90039	-9999.90039	-9999.90039	-9999.90039	-9999.90039	-9999.90039	-9999.90039	-9999.90039
	2982.8811	-9999.90039	-9999.90039	-9999.90039	-9999.90039	-9999.90039	-9999.90039	-9999.90039	-9999.90039	-9999.90039	-9999.90039	-9999.90039	-9999.90039	-9999.90039	-9999.90039	-9999.90039	-9999.90039	-9999.90039	-9999.90039	-9999.90039	-9999.90039	-9999.90039	-9999.90039
	2983.0335	-9999.90039	-9999.90039	-9999.90039	-9999.90039	-9999.90039	-9999.90039	-9999.90039	-9999.90039	-9999.90039	-9999.90039	-9999.90039	-9999.90039	-9999.90039	-9999.90039	-9999.90039	-9999.90039	-9999.90039	-9999.90039	-9999.90039	-9999.90039	-9999.90039	-9999.90039
	2983.1859	-9999.90039	-9999.90039	-9999.90039	-9999.90039	-9999.90039	-9999.90039	-9999.90039	-9999.90039	-9999.90039	-9999.90039	-9999.90039	-9999.90039	-9999.90039	-9999.90039	-9999.90039	-9999.90039	-9999.90039	-9999.90039	-9999.90039	-9999.90039	-9999.90039	-9999.90039
	2983.3383	-9999.90039	-9999.90039	-9999.90039	-9999.90039	-9999.90039	-9999.90039	-9999.90039	-9999.90039	-9999.90039	-9999.90039	-9999.90039	-9999.90039	-9999.90039	-9999.90039	-9999.90039	-9999.90039	-9999.90039	-9999.90039	-9999.90039	-9999.90039	-9999.90039	-9999.90039
	2983.4907	-9999.90039	-9999.90039	-9999.90039	-9999.90039	-9999.90039	-9999.90039	-9999.90039	-9999.90039	-9999.90039	-9999.90039	-9999.90039	-9999.90039	-9999.90039	-9999.90039	-9999.90039	-9999.90039	-9999.90039	-9999.90039	-9999.90039	-9999.90039	-9999.90039	-9999.90039
	2983.6431	-9999.90039	-9999.90039	-9999.90039	-9999.90039	-9999.90039	-9999.90039	-9999.90039	-9999.90039	-9999.90039	-9999.90039	-9999.90039	-9999.90039	-9999.90039	-9999.90039	-9999.90039	-9999.90039	-9999.90039	-9999.90039	-9999.90039	-9999.90039	-9999.90039	-9999.90039
	2983.7955	-9999.90039	-9999.90039	-9999.90039	-9999.90039	-9999.90039	-9999.90039	-9999.90039	-9999.90039	-9999.90039	-9999.90039	-9999.90039	-9999.90039	-9999.90039	-9999.90039	-9999.90039	-9999.90039	-9999.90039	-9999.90039	-9999.90039	-9999.90039	-9999.90039	-9999.90039
	2983.9479	-9999.90039	-9999.90039	-9999.90039	-9999.90039	-9999.90039	-9999.90039	-9999.90039	-9999.90039	-9999.90039	-9999.90039	-9999.90039	-9999.90039	-9999.90039	-9999.90039	-9999.90039	-9999.90039	-9999.90039	-9999.90039	-9999.90039	-9999.90039	-9999.90039	-9999.90039
	2984.1003	-9999.90039	-9999.90039	-9999.90039	-9999.90039	-9999.90039	-9999.90039	-9999.90039	-9999.90039	-9999.90039	-9999.90039	-9999.90039	-9999.90039	-9999.90039	-9999.90039	-9999.90039	-9999.90039	-9999.90039	-9999.90039	-9999.90039	-9999.90039	-9999.90039	-9999.90039
	2984.2527	-9999.90039	-9999.90039	-9999.90039	-9999.90039	-9999.90039	-9999.90039	-9999.90039	-9999.90039	-9999.90039	-9999.90039	-9999.90039	-9999.90039	-9999.90039	-9999.90039	-9999.90039	-9999.90039	-9999.90039	-9999.90039	-9999.90039	-9999.90039	-9999.90039	-9999.90039
	2984.4051	-9999.90039	-9999.90039	-9999.90039	-9999.90039	-9999.90039	-9999.90039	-9999.90039	-9999.90039	-9999.90039	-9999.90039	-9999.90039	-9999.90039	-9999.90039	-9999.90039	-9999.90039	-9999.90039	-9999.90039	-9999.90039	-9999.90039	-9999.90039	-9999.90039	-9999.90039
	2984.5575	-9999.90039	-9999.90039	-9999.90039	-9999.90039	-9999.90039	-9999.90039	-9999.90039	-9999.90039	-9999.90039	-9999.90039	-9999.90039	-9999.90039	-9999.90039	-9999.90039	-9999.90039	-9999.90039	-9999.90039	-9999.90039	-9999.90039	-9999.90039	-9999.90039	-9999.90039
	2984.7099	-9999.90039	-9999.90039	-9999.90039	-9999.90039	-9999.90039	-9999.90039	-9999.90039	-9999.90039	-9999.90039	-9999.90039	-9999.90039	-9999.90039	-9999.90039	-9999.90039	-9999.90039	-9999.90039	-9999.90039	-9999.90039	-9999.90039	-9999.90039	-9999.90039	-9999.90039
	2984.8623	-9999.90039	-9999.90039	-9999.90039	-9999.90039	-9999.90039	-9999.90039	-9999.90039	-9999.90039	-9999.90039	-9999.90039	-9999.90039	-9999.90039	-9999.90039	-9999.90039	-9999.90039	-9999.90039	-9999.90039	-9999.90039	-9999.90039	-9999.90039	-9999.90039	-9999.90039
	2985.0147	-9999.90039	-9999.90039	-9999.90039	-9999.90039	-9999.90039	-9999.90039	-9999.90039	-9999.90039	-9999.90039	-9999.90039	-9999.90039	-9999.90039	-9999.90039	-9999.90039	-9999.90039	-9999.90039	-9999.90039	-9999.90039	-9999.90039	-9999.90039	-9999.90039	-9999.90039
	2985.1671	-9999.90039	-9999.90039	-9999.90039	-9999.90039	-9999.90039	-9999.90039	-9999.90039	-9999.90039	-9999.90039	-9999.90039	-9999.90039	-9999.90039	-9999.90039	-9999.90039	-9999.90039	-9999.90039	-9999.90039	-9999.90039	-9999.90039	-9999.90039	-9999.90039	-9999.90039
	2985.3195	-9999.90039	-9999.90039	-9999.90039	-9999.90039	-9999.90039	-9999.90039	-9999.90039	-9999.90039	-9999.90039	-9999.90039	-9999.90039	-9999.90039	-9999.90039	-9999.90039	-9999.90039	-9999.90039	-9999.90039	-9999.90039	-9999.90039	-9999.90039	-9999.90039	-9999.90039
