~VERSION	INFORMATION																						
VERS.	2	:Log	ASCII	Standard	-	VERSION	2																
WRAP.	NO	:One	Line	per	depth	step																	
PROD.	YuXH	:LAS	Producer																				
PROG.	YuXH2LAS	1	:LAS	Program	name	and	version																
CREA.	8/19/2013	15:01	:LAS	Creation	date	{YYYY/MM/DD	hh:mm}																
SOURCE.		:Data	File	Name																			
#--------------------------------------------------																							
~WELL	INFORMATION																						
#MENM.UNIT	DATA	DESCRIPTION																					
#----	------	--------------	-----------------------------																				
STRT	.m	2980.8999	:START	DEPTH																			
STOP	.m	4420.1099	:STOP	DEPTH																			
STEP	.m	0.1524	:STEP																				
NULL	.	-9999.9	:NULL	VALUE																			
COMP	.	unknown	:COMPANY																				
WELL	.	unknown	:WELL																				
FLD	.	unknown	:FIELD																				
LOC	.	unknown	:LOCATION																				
CNTY	.	unknown	:COUNTY																				
STAT	.	unknown	:STATE																				
CTRY	.	unknown	:COUNTRY																				
API	.	unknown	:API	NUMBER																			
UWI	.	unknown	:UNIQUE	WELL	ID																		
DATE	.	unknown	:LOG	DATE																			
SRVC	.	YuXH	:SERVICE	COMPANY																			
GDAT	.	unknown	:GeoDetic	Datum																			
#-----------------------------------------------------------------------------																							
~PARAMETER	INFORMATION																						
#MNEM.UNIT	VALUE	DESCRIPTION																					
#----	-----	--------------------	------------------------																				
RUN	.NONE	1	:RUN	NUMBER																			
LATI	.DEG	0	:LATITUDE																				
LONG	.DEG	0	:X-COORDINATE	OF	WELL	HEAD																	
XWELL.M	0	:Y-COORDINATE	OF	WELL	HEAD																		
YWELL.M	0	:LONGITUDE																					
PDAT	.M	0	:Permanent	Datum																			
EPD	.M	0	:Elevation	of	Permanent	Datum	above	Mean	Sea	Level													
LMF	.M	0	:Logging	Measured	From	(Name	of	Logging	Elevation	Reference)													
APD	.M	0	:Elevation	of	Depth	Reference	(LMF)	above	Permanent	Datum													
#-----------------------------------------------------------------------------																							
~CURVE	INFORMATION																						
#MNEM.UNIT	API	CODE	DESCRIPTION																				
#----	-----	--------	-----------------------																				
DEPT	.m	:	DEPTH	{F10.3}																			
DTC	.us/ft	:	DTC	{F10.3}																			
vpvs	.API	:	vpvs	{F10.3}																			
DTs	.us/ft	:	DTs	{F10.3}																			
DTst	.us/ft	:	DTst	{F10.3}																			
BMOD	.MPa	:	BMOD	{F10.3}																			
BULK	.MPa	:	BULK	{F10.3}																			
DMMI	.g/cm3	:	DMMI	{F10.3}																			
DMMX	.g/cm3	:	DMMX	{F10.3}																			
FI	.%	:	FI	{F10.3}																			
FRACP	.MPa	:	FRACP	{F10.3}																			
POIS	.%	:	POIS	{F10.3}																			
pp	.MPa	:	pp	{F10.3}																			
RL	.MPa	:	RL	{F10.3}																			
RMSC	.g/cm3	:	RMSC	{F10.3}																			
SH1	.MPa	:	SH1	{F10.3}																			
SH2	.MPa	:	SH2	{F10.3}																			
SHV	.MPa	:	SHV	{F10.3}																			
SMOD	.MPa	:	SMOD	{F10.3}																			
SPOIS	.%	:	SPOIS	{F10.3}																			
ST	.MPa	:	ST	{F10.3}																			
SYMOD	.MPa	:	SYMOD	{F10.3}																			
YMOD	.MPa	:	YMOD	{F10.3}																			
#-----------------------------------------------------------------------------																							
#																							
#	INDEX	DTC	vpvs	DTs	DTst	BMOD	BULK	DMMI	DMMX	FI	FRACP	POIS	pp	RL	RMSC	SH1	SH2	SHV	SMOD	SPOIS	ST	SYMOD	YMOD
#																							
~ASCII	DATA	SECTION																					
# ...
	3936.60031	72.70914	1.78716	129.85474	214.32269	27797.75977	47764.43359	1.22558	2.25346	0.33419	90.79496	0.27165	56.23842	17814.41992	1.78595	109.00008	81.81086	102.59502	14975.00781	0.25048	5.65469	25922.35938	38085.90625
	3936.75271	72.73891	1.78959	130.53604	214.28612	27978.57227	47745.87109	1.22772	2.26988	0.33984	91.43177	0.27483	56.24249	18094.92383	1.79458	109.32988	82.14028	102.59908	14825.47266	0.25364	5.64873	25793.30078	37799.87109
	3936.90511	72.71355	1.79703	130.91495	214.22873	28035.38086	47624.99609	1.22885	2.2801	0.34362	91.82964	0.27694	56.24654	18240.57422	1.80042	109.55145	82.36147	102.60313	14692.21094	0.25574	5.61859	25667.94336	37522.03906
	3937.05751	72.65765	1.80254	131.20511	214.12646	28118.71094	47568.83984	1.22997	2.28968	0.34706	92.20274	0.27885	56.24528	18393.64453	1.8058	109.75004	82.55957	102.60314	14587.59863	0.25764	5.60355	25572.58984	37310.70313
	3937.20991	72.59545	1.81945	131.71523	213.98508	28314.66992	47589.96094	1.23216	2.30564	0.35249	92.82236	0.28185	56.24931	18677.02539	1.81437	110.06682	82.87597	102.60718	14456.46875	0.26062	5.60498	25460.33398	37061.90625
	3937.36231	72.55949	1.82933	132.64412	213.83951	28593.66406	47575.23828	1.23555	2.33042	0.361	93.78196	0.28649	56.25865	19102.87891	1.82807	110.56528	83.37415	102.61524	14236.17871	0.26525	5.59417	25265.23828	36629.51563
	3937.51471	72.55041	1.83311	133.53525	213.72562	28789.07813	47473.37109	1.2383	2.35182	0.36861	94.61153	0.2906	56.26267	19446.92969	1.84059	111.00746	83.81596	102.61926	14013.2207	0.26933	5.56188	25058.30078	36170.87891
	3937.66711	72.5491	1.84251	133.79346	213.65434	28801.375	47373.98828	1.23883	2.35731	0.37076	94.82693	0.29175	56.26141	19515.06836	1.84418	111.13171	83.93972	102.61927	13929.45996	0.27048	5.53594	24975.26172	35986.83984
	3937.81951	72.55424	1.8329	133.23679	213.65123	28580.91992	47270.97266	1.2367	2.34301	0.36606	94.27885	0.28923	56.26542	19235.89258	1.83637	110.86533	83.67297	102.62328	14017.54102	0.26797	5.51752	25046.04492	36143.71484
	3937.97191	72.60291	1.82679	132.68091	213.7278	28318.40625	47137.33594	1.23427	2.32649	0.36064	93.64471	0.2863	56.27469	18908.94141	1.82749	110.561	83.36836	102.63129	14114.19727	0.26505	5.49201	25121.13477	36310.13672
	3938.12431	72.68716	1.8239	132.16988	213.83604	28027.83789	46968.54688	1.23158	2.30889	0.35497	92.96922	0.28321	56.27869	18557.48242	1.81834	110.2386	83.04559	102.63528	14205.53223	0.26198	5.45769	25187.5332	36457.29688
	3938.27671	72.73634	1.8149	131.63	213.88838	27811.05273	46909.09375	1.2292	2.29255	0.34953	92.34208	0.28022	56.27741	18262.0332	1.80969	109.92532	82.73182	102.63528	14323.53027	0.259	5.44773	25285.50781	36674.44141
	3938.42911	72.66661	1.8062	130.85994	213.82996	27825.62305	47253.78125	1.22798	2.27834	0.34388	91.79725	0.27708	56.28141	18111.54297	1.80083	109.60363	82.40975	102.63927	14571.12109	0.25589	5.53122	25530.32227	37217.02734
	3938.58151	72.47905	1.78412	129.70049	213.68297	27833.94141	47691.15625	1.22649	2.25987	0.33652	91.08795	0.27296	56.29073	17905.33398	1.78949	109.1877	81.99355	102.64732	14892.91113	0.25179	5.63682	25845.79492	37916.21094
	3938.73391	72.26368	1.77459	128.31052	213.49643	27871.29883	48296.80469	1.2248	2.23698	0.3273	90.2078	0.26773	56.29478	17658.54688	1.77559	108.6605	81.46597	102.65137	15319.12793	0.24659	5.78208	26263.14258	38841.18359
	3938.88631	72.07833	1.7708	127.12986	213.33087	27721.29688	48514.76953	1.22247	2.21497	0.31928	89.36171	0.26313	56.29884	17324.56055	1.76377	108.20296	81.00804	102.65543	15595.10449	0.24201	5.83332	26514.11328	39397.41016
	3939.03871	71.99333	1.76123	126.56567	213.21141	27547.04297	48448.09375	1.22073	2.20277	0.31532	88.89441	0.26084	56.29758	17096.51953	1.75802	107.97475	80.77934	102.65544	15675.78711	0.23973	5.81605	26573.59961	39529.25391
	3939.19111	71.99248	1.76311	126.67232	213.15437	27553.58789	48396.92969	1.22097	2.20548	0.31636	89.00249	0.26144	56.30162	17131.91797	1.75952	108.03869	80.8429	102.65948	15632.50684	0.24033	5.80415	26532.86133	39438.96484
	3939.34351	71.98895	1.77006	127.37675	213.20308	27790.08398	48404.89453	1.22362	2.22549	0.32312	89.77816	0.26534	56.31096	17482.67773	1.76939	108.4361	81.24003	102.66755	15461.1084	0.24421	5.80768	26392.16992	39127.15234
	3939.49591	72.00242	1.77428	128.29808	213.37674	28081.84766	48412.40625	1.22682	2.25006	0.33148	90.73045	0.27012	56.31499	17916.57031	1.78186	108.92238	81.72594	102.67159	15247.91797	0.24896	5.80958	26214.45313	38733.27344
	3939.64831	72.06994	1.78525	129.00078	213.54886	28226.57617	48346.58594	1.22858	2.2651	0.33681	91.31463	0.27313	56.31372	18166.57031	1.78994	109.2296	82.03268	102.67159	15090.00684	0.25195	5.79274	26074.45898	38423.00391
	3939.80071	72.13806	1.79152	129.37939	213.65332	28292.06641	48322.22656	1.22941	2.27173	0.33914	91.57414	0.27443	56.31776	18276.98828	1.7935	109.36762	82.17032	102.67563	15022.61914	0.25325	5.78618	26014.73047	38290.62891
	3939.95311	72.18059	1.79937	129.74425	213.70332	28349.00391	48267.62109	1.23034	2.27905	0.34173	91.86018	0.27588	56.32713	18389.69336	1.7975	109.52527	82.32767	102.68372	14938.96484	0.25469	5.7721	25938.09375	38120.77344
	3940.10551	72.22758	1.80253	130.1732	213.73701	28325.7793	48049.62891	1.2309	2.28654	0.3448	92.15308	0.2776	56.33117	18463.85352	1.80226	109.70639	82.50842	102.68776	14792.8877	0.2564	5.71864	25792.75391	37798.65625
	3940.25791	72.30093	1.80296	130.41031	213.78992	28196.30664	47776.50391	1.23041	2.28731	0.34573	92.1865	0.27811	56.32989	18406.20898	1.80372	109.76007	82.56161	102.68776	14685.14746	0.25691	5.65333	25675.38281	37538.52734
	3940.41031	72.40317	1.80382	130.60793	213.86523	28034.22266	47495.19141	1.22967	2.28578	0.34585	92.13077	0.27818	56.33392	18303.73828	1.8039	109.77092	82.57209	102.69178	14595.72656	0.25697	5.58689	25573.10156	37311.83984
	3940.56271	72.52752	1.80212	130.72887	213.95445	27869.08398	47267.33203	1.22875	2.28171	0.34494	91.9772	0.27767	56.3432	18169.96094	1.80247	109.7264	82.5273	102.69979	14548.68359	0.25647	5.53388	25512.18555	37176.82813
	3940.71511	72.6263	1.80151	130.84644	214.05556	27810.2832	47197.98047	1.22836	2.2797	0.3444	91.90298	0.27737	56.3472	18116.43359	1.80164	109.69971	82.50022	102.7038	14540.77539	0.25617	5.51792	25499.16797	37147.97656
	3940.86751	72.68313	1.80135	130.92834	214.13887	27847.32617	47271.15234	1.22852	2.27966	0.34422	91.90516	0.27727	56.35122	18135.41406	1.80136	109.69341	82.49354	102.70782	14567.86914	0.25607	5.53513	25529.07617	37214.26172
	3941.01991	72.69738	1.80168	131.01732	214.17979	27922.58984	47367	1.22895	2.28183	0.34478	91.99248	0.27758	56.34995	18200.38672	1.80223	109.72575	82.5254	102.70782	14583.30566	0.25638	5.55732	25550.96094	37262.76563
	3941.17231	72.67467	1.80279	131.08145	214.19086	27939.98633	47343.67969	1.22926	2.28438	0.34571	92.09462	0.2781	56.35398	18238.13867	1.80367	109.78324	82.58251	102.71185	14552.77148	0.2569	5.55137	25522.51367	37199.72266
	3941.32471	72.65986	1.80438	131.10556	214.20052	27871.19922	47201.71094	1.22913	2.28485	0.34615	92.11645	0.27835	56.36329	18205.94336	1.80437	109.81713	82.61613	102.71989	14497.88379	0.25714	5.51789	25462.45703	37066.61719
	3941.47711	72.67365	1.80434	131.12793	214.23216	27812.54883	47103.63281	1.22885	2.28415	0.34613	92.09264	0.27833	56.36729	18167.00586	1.80434	109.81996	82.61858	102.72388	14468.31348	0.25713	5.495	25428.18555	36990.66016
	3941.62951	72.72252	1.80413	131.1759	214.30052	27707.19922	46945.17969	1.2282	2.28197	0.34578	92.01206	0.27814	56.36602	18088.21094	1.80379	109.79971	82.59784	102.72388	14428.48438	0.25694	5.45828	25379.68555	36883.16797
	3941.78191	72.8063	1.80335	131.24605	214.40059	27636.91992	46866.27344	1.22771	2.27938	0.34507	91.91547	0.27774	56.37002	18022.24414	1.80267	109.76276	82.56051	102.72788	14422.01367	0.25654	5.4403	25367.07422	36855.21484
	3941.93431	72.90414	1.80209	131.31505	214.50835	27624.02734	46897.79297	1.22752	2.27694	0.34412	91.82481	0.27722	56.37929	17987.14648	1.8012	109.71635	82.51384	102.73589	14455.32422	0.25602	5.44808	25398.625	36925.14453
	3942.08671	73.01292	1.79823	131.36081	214.59035	27530.59375	46813.89453	1.22678	2.27253	0.3428	91.65796	0.27648	56.38331	17888.94336	1.79914	109.64417	82.44127	102.73991	14462.47461	0.25529	5.42921	25397.24219	36922.07813
