~VERSION	INFORMATION																						
VERS.	2	:Log	ASCII	Standard	-	VERSION	2																
WRAP.	NO	:One	Line	per	depth	step																	
PROD.	YuXH	:LAS	Producer																				
PROG.	YuXH2LAS	1	:LAS	Program	name	and	version																
CREA.	8/19/2013	15:01	:LAS	Creation	date	{YYYY/MM/DD	hh:mm}																
SOURCE.		:Data	File	Name																			
#--------------------------------------------------																							
~WELL	INFORMATION																						
#MENM.UNIT	DATA	DESCRIPTION																					
#----	------	--------------	-----------------------------																				
STRT	.m	2980.8999	:START	DEPTH																			
STOP	.m	4420.1099	:STOP	DEPTH																			
STEP	.m	0.1524	:STEP																				
NULL	.	-9999.9	:NULL	VALUE																			
COMP	.	unknown	:COMPANY																				
WELL	.	unknown	:WELL																				
FLD	.	unknown	:FIELD																				
LOC	.	unknown	:LOCATION																				
CNTY	.	unknown	:COUNTY																				
STAT	.	unknown	:STATE																				
CTRY	.	unknown	:COUNTRY																				
API	.	unknown	:API	NUMBER																			
UWI	.	unknown	:UNIQUE	WELL	ID																		
DATE	.	unknown	:LOG	DATE																			
SRVC	.	YuXH	:SERVICE	COMPANY																			
GDAT	.	unknown	:GeoDetic	Datum																			
#-----------------------------------------------------------------------------																							
~PARAMETER	INFORMATION																						
#MNEM.UNIT	VALUE	DESCRIPTION																					
#----	-----	--------------------	------------------------																				
RUN	.NONE	1	:RUN	NUMBER																			
LATI	.DEG	0	:LATITUDE																				
LONG	.DEG	0	:X-COORDINATE	OF	WELL	HEAD																	
XWELL.M	0	:Y-COORDINATE	OF	WELL	HEAD																		
YWELL.M	0	:LONGITUDE																					
PDAT	.M	0	:Permanent	Datum																			
EPD	.M	0	:Elevation	of	Permanent	Datum	above	Mean	Sea	Level													
LMF	.M	0	:Logging	Measured	From	(Name	of	Logging	Elevation	Reference)													
APD	.M	0	:Elevation	of	Depth	Reference	(LMF)	above	Permanent	Datum													
#-----------------------------------------------------------------------------																							
~CURVE	INFORMATION																						
#MNEM.UNIT	API	CODE	DESCRIPTION																				
#----	-----	--------	-----------------------																				
DEPT	.m	:	DEPTH	{F10.3}																			
DTC	.us/ft	:	DTC	{F10.3}																			
vpvs	.API	:	vpvs	{F10.3}																			
DTs	.us/ft	:	DTs	{F10.3}																			
DTst	.us/ft	:	DTst	{F10.3}																			
BMOD	.MPa	:	BMOD	{F10.3}																			
BULK	.MPa	:	BULK	{F10.3}																			
DMMI	.g/cm3	:	DMMI	{F10.3}																			
DMMX	.g/cm3	:	DMMX	{F10.3}																			
FI	.%	:	FI	{F10.3}																			
FRACP	.MPa	:	FRACP	{F10.3}																			
POIS	.%	:	POIS	{F10.3}																			
pp	.MPa	:	pp	{F10.3}																			
RL	.MPa	:	RL	{F10.3}																			
RMSC	.g/cm3	:	RMSC	{F10.3}																			
SH1	.MPa	:	SH1	{F10.3}																			
SH2	.MPa	:	SH2	{F10.3}																			
SHV	.MPa	:	SHV	{F10.3}																			
SMOD	.MPa	:	SMOD	{F10.3}																			
SPOIS	.%	:	SPOIS	{F10.3}																			
ST	.MPa	:	ST	{F10.3}																			
SYMOD	.MPa	:	SYMOD	{F10.3}																			
YMOD	.MPa	:	YMOD	{F10.3}																			
#-----------------------------------------------------------------------------																							
#																							
#	INDEX	DTC	vpvs	DTs	DTst	BMOD	BULK	DMMI	DMMX	FI	FRACP	POIS	pp	RL	RMSC	SH1	SH2	SHV	SMOD	SPOIS	ST	SYMOD	YMOD
#																							
~ASCII	DATA	SECTION																					
# ...
	3260.09671	53.17247	1.90092	101.34277	209.50723	55256.14453	87299.58594	1.28862	2.88207	0.40587	95.27573	0.31007	38.35752	39234.42578	1.90593	94.59383	69.09269	84.71384	24032.58008	0.2887	18.58404	37149.49219	62968.73438
	3260.24911	52.45475	1.9142	100.94038	210.04169	57465.73438	89799.0625	1.29781	2.94665	0.41567	97.34383	0.31502	38.36149	41299.07031	1.92433	95.12776	69.62625	84.71782	24249.99414	0.29362	19.57578	37514.92969	63778.65234
	3260.40151	51.5877	1.93915	100.78498	210.39099	60621.92969	93168.88281	1.30953	3.03926	0.43072	100.30733	0.32249	38.35995	44348.45703	1.95366	95.94099	70.4389	84.71782	24410.21484	0.30105	20.90545	37869.59375	64564.70313
	3260.55391	50.88622	1.97215	100.99133	210.69571	63462.67188	95938.90625	1.31867	3.1233	0.44589	102.99734	0.32986	38.36395	47224.55469	1.98465	96.76458	71.26211	84.72181	24357.17578	0.30838	21.95924	37968.3125	64783.49219
	3260.70631	50.73997	1.99756	101.33927	210.94312	64252.11328	96512.23438	1.32059	3.14854	0.45184	103.80886	0.33272	38.37347	48122.05469	1.99723	97.09425	71.59161	84.7298	24195.08789	0.31122	22.1318	37836.03906	64490.33203
	3260.85871	51.2361	1.99364	101.5637	211.123	62508.32422	94612.58594	1.31455	3.10056	0.44475	102.28043	0.32932	38.37748	46456.19141	1.98227	96.71523	71.21221	84.7338	24078.19727	0.30784	21.37247	37621.59375	64015.05859
	3261.01111	52.16434	1.96497	101.52095	211.23828	59083.67188	91182.1875	1.30288	2.99943	0.42695	99.05325	0.32063	38.37594	43034.41406	1.94618	95.75363	70.25003	84.7338	24073.88477	0.2992	20.066	37427.81641	63585.58594
	3261.16351	53.20462	1.92203	101.25702	211.26907	55304.71094	87523.79688	1.28939	2.8804	0.40437	95.25373	0.30931	38.37994	39195.16797	1.90316	94.53799	69.034	84.7378	24164.31641	0.28794	18.69145	37288.60938	63277.05469
	3261.31591	54.09401	1.85518	101.02425	211.21745	52086.23828	84320.64844	1.27669	2.7753	0.38448	91.89889	0.29902	38.38943	35969.03516	1.86757	93.47102	67.96687	84.74576	24175.80859	0.27771	17.47368	37077.74609	62809.72266
	3261.46831	54.61189	1.85391	101.05854	211.12465	50409.82813	82554.36719	1.26932	2.7203	0.37451	90.14536	0.29375	38.39339	34337.5625	1.85049	92.93661	67.43209	84.74972	24108.40039	0.27247	16.79578	36884.17969	62380.71875
	3261.62071	54.62361	1.84945	101.34106	211.08742	50514.29297	82455.14063	1.26909	2.72769	0.37732	90.38561	0.29525	38.39185	34543.87109	1.85526	93.08885	67.58375	84.74972	23955.63672	0.27395	16.74326	36738.13672	62057.03906
	3261.77311	54.22597	1.86504	101.73828	211.16563	52015.41016	83730.77344	1.27482	2.78244	0.3894	92.14019	0.30159	38.39581	36157.73047	1.87619	93.74556	68.24008	84.75368	23786.52148	0.28027	17.20297	36676.67188	61920.81641
	3261.92551	53.66248	1.89166	102.19109	211.2888	54196.05469	85708.03906	1.28309	2.85715	0.405	94.53277	0.30963	38.39977	38440.0625	1.90433	94.59278	69.08693	84.75764	23633.99023	0.28826	17.91918	36668.90234	61903.59375
	3262.07791	53.28268	1.93015	102.54879	211.36697	55733.18359	87077.16406	1.28867	2.90872	0.41582	96.1857	0.3151	38.40926	40061.19531	1.92462	95.18546	69.67944	84.76559	23507.98438	0.2937	18.4057	36635.99609	61830.66406
	3262.23031	53.28057	1.92831	102.49218	211.33989	55799.83203	87231.60156	1.28919	2.90928	0.41531	96.2082	0.31484	38.41325	40083.94531	1.92363	95.16162	69.65523	84.76958	23573.82617	0.29344	18.47567	36708.60547	61991.58984
	3262.38271	53.43177	1.91583	101.90039	211.21037	54971.37109	86787.04688	1.28704	2.8765	0.40651	95.16447	0.3104	38.41171	39063.53516	1.90711	94.68646	69.17948	84.76958	23861.75586	0.28902	18.36142	36954.5625	62536.70703
	3262.53511	53.35167	1.89803	101.12408	211.05798	54849.30469	87218.78125	1.28827	2.86314	0.40014	94.74193	0.30715	38.4157	38664.57031	1.89542	94.34658	68.83923	84.77357	24277.10547	0.28579	18.59331	37374.51172	63467.44531
	3262.68751	53.13938	1.89653	100.70708	210.94647	55406.73047	88120.26563	1.29164	2.87541	0.39999	95.13867	0.30707	38.42523	39049.96484	1.89515	94.34646	68.83893	84.78156	24535.15234	0.28571	18.98079	37677.17578	64138.24219
	3262.83991	53.02018	1.89913	101.02094	210.86375	55989.83203	88490.82813	1.29319	2.89743	0.40555	95.84731	0.30991	38.42924	39739.33594	1.90533	94.65076	69.14285	84.78557	24375.74805	0.28853	19.0973	37551.58203	63859.89063
	3262.99231	53.06331	1.91251	101.67381	210.75171	56030.66797	87983.63281	1.29157	2.90755	0.41132	96.17513	0.31283	38.4277	40054.18359	1.91608	94.96281	69.45433	84.78557	23964.72656	0.29144	18.83092	37128.97656	62923.26563
	3263.14471	53.11286	1.91947	101.96535	210.61087	55975.52734	87704.35938	1.29072	2.90952	0.41328	96.24289	0.31382	38.43169	40111.11328	1.91979	95.07306	69.56419	84.78956	23796.62305	0.29243	18.69451	36951.07813	62528.98047
	3263.29711	53.00082	1.91961	101.68388	210.55026	56297.93359	88274.86719	1.29278	2.91561	0.41262	96.4419	0.31349	38.44119	40309.46875	1.91853	95.04527	69.53623	84.79752	23982.70117	0.29209	18.9444	37164.46484	63001.91406
	3263.44951	52.70856	1.92314	101.2524	210.68979	57243.61719	89627.82813	1.29756	2.93854	0.41391	97.17984	0.31414	38.44521	41051.51172	1.92099	95.11951	69.61009	84.80154	24288.1582	0.29274	19.51765	37540.82422	63836.04297
	3263.60191	52.30601	1.92605	101.08099	211.08621	58723.48047	91331.39844	1.30353	2.9806	0.41993	98.52958	0.31715	38.44367	42419.51953	1.93249	95.44499	69.935	84.80154	24455.93945	0.29574	20.20678	37806.30469	64424.43359
	3263.75431	52.13015	1.93962	101.26384	211.47618	59303.51563	91709.14844	1.30494	3.00116	0.42509	99.19183	0.31971	38.44769	43100.69922	1.94252	95.72782	70.21745	84.80556	24304.22461	0.29829	20.31921	37682.16016	64149.28516
	3263.90671	52.32774	1.94337	101.4951	211.35336	58377.91016	90426.42969	1.30058	2.97838	0.4236	98.46794	0.31898	38.45171	42353.65234	1.9396	95.65142	70.14066	84.80957	24036.38867	0.29755	19.77057	37347.16406	63406.83984
	3264.05911	52.62921	1.93434	101.58491	210.35165	57409.31641	89405.51563	1.29704	2.94967	0.41874	97.55399	0.31656	38.46121	41411.21484	1.9302	95.39705	69.88612	84.81754	23997.15039	0.29515	19.37523	37248.125	63187.32813
	3264.21151	52.7852	1.9248	101.63564	208.70905	57235.00391	89379.77344	1.29688	2.94193	0.41626	97.31094	0.31532	38.46522	41162.62109	1.92546	95.26738	69.75607	84.82155	24108.57422	0.29392	19.38783	37353.54297	63420.97656
	3264.36391	52.85556	1.92511	101.78767	207.18326	57151.06641	89232.38281	1.2963	2.94019	0.41643	97.2598	0.3154	38.46368	41110.41016	1.92577	95.27649	69.7646	84.82155	24060.98633	0.294	19.3224	37298.84766	63299.75
	3264.51631	52.98177	1.92691	102.15279	206.65407	56711.39844	88427.35156	1.29361	2.93244	0.41763	97.01661	0.31601	38.4677	40853.41797	1.92807	95.34576	69.8335	84.82556	23786.9668	0.2946	18.96408	36986.52734	62607.55078
	3264.66871	53.22617	1.92888	102.64468	207.43837	56072.60547	87411.63281	1.29027	2.91903	0.41784	96.59204	0.31611	38.47721	40403.08984	1.92846	95.36476	69.85233	84.83354	23504.27148	0.2947	18.52905	36652.96094	61868.25781
	3264.82111	53.54105	1.92417	103.09911	208.31293	55267.32813	86299.36719	1.28641	2.89926	0.41634	95.96392	0.31536	38.48119	39751.30859	1.92561	95.28825	69.77544	84.83752	23274.0293	0.29396	18.07379	36363.82422	61227.44531
	3264.97351	53.66027	1.92414	103.24651	208.836	55047.32422	86032.75	1.28537	2.89307	0.41554	95.7702	0.31496	38.47966	39554.60938	1.92408	95.24508	69.73168	84.83752	23239.07031	0.29356	17.9693	36313.87891	61116.75391
	3265.12591	53.27168	1.9289	103.26337	209.1385	56593.89844	87721.41406	1.29161	2.93847	0.42299	97.22765	0.31868	38.48364	41030.14063	1.93843	95.65206	70.13829	84.84151	23345.64063	0.29726	18.61137	36518.70313	61570.70703
	3265.27831	52.26296	1.958	103.47737	209.35214	60311.18359	91397.60938	1.30483	3.05023	0.44363	100.80828	0.32878	38.4932	44767.96484	1.97994	96.77554	71.2616	84.84953	23314.82227	0.3073	19.95935	36694.51172	61960.35156
	3265.43071	51.24037	2.00848	103.82568	209.61281	64191.14844	95063.26563	1.31692	3.16305	0.46515	104.4236	0.339	38.49722	48755.08984	2.02625	97.94292	72.4286	84.85355	23154.08789	0.31747	21.25933	36715.49609	62006.86328
	3265.58311	51.00066	2.02322	103.52279	209.96568	64749.24609	95727.30469	1.31886	3.17693	0.46675	104.87254	0.33975	38.49568	49260.21484	2.02983	98.02989	72.51499	84.85355	23233.54688	0.31822	21.52981	36827.23828	62254.51563
