~VERSION	INFORMATION																						
VERS.	2	:Log	ASCII	Standard	-	VERSION	2																
WRAP.	NO	:One	Line	per	depth	step																	
PROD.	YuXH	:LAS	Producer																				
PROG.	YuXH2LAS	1	:LAS	Program	name	and	version																
CREA.	8/19/2013	15:01	:LAS	Creation	date	{YYYY/MM/DD	hh:mm}																
SOURCE.		:Data	File	Name																			
#--------------------------------------------------																							
~WELL	INFORMATION																						
#MENM.UNIT	DATA	DESCRIPTION																					
#----	------	--------------	-----------------------------																				
STRT	.m	2980.8999	:START	DEPTH																			
STOP	.m	4420.1099	:STOP	DEPTH																			
STEP	.m	0.1524	:STEP																				
NULL	.	-9999.9	:NULL	VALUE																			
COMP	.	unknown	:COMPANY																				
WELL	.	unknown	:WELL																				
FLD	.	unknown	:FIELD																				
LOC	.	unknown	:LOCATION																				
CNTY	.	unknown	:COUNTY																				
STAT	.	unknown	:STATE																				
CTRY	.	unknown	:COUNTRY																				
API	.	unknown	:API	NUMBER																			
UWI	.	unknown	:UNIQUE	WELL	ID																		
DATE	.	unknown	:LOG	DATE																			
SRVC	.	YuXH	:SERVICE	COMPANY																			
GDAT	.	unknown	:GeoDetic	Datum																			
#-----------------------------------------------------------------------------																							
~PARAMETER	INFORMATION																						
#MNEM.UNIT	VALUE	DESCRIPTION																					
#----	-----	--------------------	------------------------																				
RUN	.NONE	1	:RUN	NUMBER																			
LATI	.DEG	0	:LATITUDE																				
LONG	.DEG	0	:X-COORDINATE	OF	WELL	HEAD																	
XWELL.M	0	:Y-COORDINATE	OF	WELL	HEAD																		
YWELL.M	0	:LONGITUDE																					
PDAT	.M	0	:Permanent	Datum																			
EPD	.M	0	:Elevation	of	Permanent	Datum	above	Mean	Sea	Level													
LMF	.M	0	:Logging	Measured	From	(Name	of	Logging	Elevation	Reference)													
APD	.M	0	:Elevation	of	Depth	Reference	(LMF)	above	Permanent	Datum													
#-----------------------------------------------------------------------------																							
~CURVE	INFORMATION																						
#MNEM.UNIT	API	CODE	DESCRIPTION																				
#----	-----	--------	-----------------------																				
DEPT	.m	:	DEPTH	{F10.3}																			
DTC	.us/ft	:	DTC	{F10.3}																			
vpvs	.API	:	vpvs	{F10.3}																			
DTs	.us/ft	:	DTs	{F10.3}																			
DTst	.us/ft	:	DTst	{F10.3}																			
BMOD	.MPa	:	BMOD	{F10.3}																			
BULK	.MPa	:	BULK	{F10.3}																			
DMMI	.g/cm3	:	DMMI	{F10.3}																			
DMMX	.g/cm3	:	DMMX	{F10.3}																			
FI	.%	:	FI	{F10.3}																			
FRACP	.MPa	:	FRACP	{F10.3}																			
POIS	.%	:	POIS	{F10.3}																			
pp	.MPa	:	pp	{F10.3}																			
RL	.MPa	:	RL	{F10.3}																			
RMSC	.g/cm3	:	RMSC	{F10.3}																			
SH1	.MPa	:	SH1	{F10.3}																			
SH2	.MPa	:	SH2	{F10.3}																			
SHV	.MPa	:	SHV	{F10.3}																			
SMOD	.MPa	:	SMOD	{F10.3}																			
SPOIS	.%	:	SPOIS	{F10.3}																			
ST	.MPa	:	ST	{F10.3}																			
SYMOD	.MPa	:	SYMOD	{F10.3}																			
YMOD	.MPa	:	YMOD	{F10.3}																			
#-----------------------------------------------------------------------------																							
#																							
#	INDEX	DTC	vpvs	DTs	DTst	BMOD	BULK	DMMI	DMMX	FI	FRACP	POIS	pp	RL	RMSC	SH1	SH2	SHV	SMOD	SPOIS	ST	SYMOD	YMOD
#																							
~ASCII	DATA	SECTION																					
# ...
	4127.25272	71.48228	1.70288	121.7451	213.41628	26322.97852	48715.17969	1.22775	2.09928	0.27545	88.95597	0.23694	61.24957	15126.87793	1.70315	110.68139	83.01852	107.60744	16794.15234	0.21596	5.84127	27483.91211	41546.78906
	4127.40512	71.275	1.70724	121.77074	213.4313	26544.67188	48867.33203	1.22969	2.11191	0.27948	89.46999	0.23943	61.25358	15383.34375	1.70846	110.92181	83.25855	107.61144	16741.99219	0.21843	5.88397	27463.23047	41500.95703
	4127.55752	70.76254	1.71807	121.89342	213.37578	27248.87891	49484.96484	1.23548	2.14637	0.29001	90.86721	0.24584	61.26278	16130.83496	1.72257	111.54664	83.88309	107.61943	16677.06641	0.22481	6.04776	27487.08984	41553.83203
	4127.70992	70.18185	1.73912	122.19042	213.34213	28153.34961	50261.23828	1.24263	2.18999	0.3034	92.63496	0.25385	61.26676	17099.4043	1.74105	112.33585	84.67194	107.62341	16580.91602	0.23278	6.25242	27498.85938	41579.91797
	4127.86232	69.71515	1.76027	122.85001	213.41943	29094.52148	50987.64063	1.25	2.23713	0.31818	94.54565	0.2625	61.27075	18147.96289	1.76217	113.20622	85.54192	107.6274	16419.83789	0.24138	6.44281	27444.76367	41460.02734
	4128.01472	69.57735	1.77954	123.89532	213.55789	29733.91602	51309.49219	1.25531	2.27495	0.3307	96.07893	0.26967	61.27474	18946.12891	1.78068	113.94408	86.27941	107.63139	16181.68164	0.24852	6.52578	27278.22656	41090.92969
	4128.16712	69.83363	1.7895	124.93539	213.68384	29717.07813	50935.87109	1.25608	2.28796	0.33623	96.609	0.2728	61.27354	19107.68164	1.78904	114.26791	86.60278	107.6314	15914.09473	0.25162	6.43001	27016.48633	40510.82813
	4128.31952	70.32338	1.78663	125.59903	213.73317	29197.2207	50166.16406	1.25315	2.27712	0.33424	96.17395	0.27168	61.27753	18712.75	1.78602	114.15548	86.48997	107.6354	15726.70605	0.25051	6.23764	26785.34766	39998.55078
	4128.47192	70.77567	1.78001	125.93534	213.72299	28654.82031	49500.91016	1.24964	2.26014	0.32982	95.49036	0.26917	61.28152	18231.77539	1.77936	113.9006	86.23471	107.63939	15634.56641	0.24802	6.07392	26644.28906	39685.92578
	4128.62432	71.10784	1.77237	125.9564	213.68555	28188.24609	49018.39063	1.24629	2.24164	0.32444	94.74557	0.2661	61.28551	17773.17383	1.77134	113.5891	85.92284	107.64338	15622.60938	0.24496	5.95599	26587.26563	39559.54297
	4128.77672	71.25594	1.76075	125.37712	213.56165	27794.26563	48819.23047	1.24287	2.21745	0.31637	93.77016	0.26145	61.2947	17281.78516	1.75953	113.12409	85.45753	107.65135	15768.72266	0.24033	5.90588	26687.97852	39782.75391
	4128.92912	71.13594	1.74996	124.30394	213.34297	27651.25781	49084.81641	1.24066	2.19508	0.30791	92.86822	0.25651	61.2987	16934.47852	1.74741	112.63262	84.96568	107.65536	16075.16797	0.23542	5.96623	26965.19531	40397.15625
	4129.08152	70.88083	1.73946	123.25664	213.146	27701.12109	49549.11719	1.23999	2.18093	0.30188	92.29906	0.25295	61.30271	16777.12305	1.73893	112.28334	84.61603	107.65936	16385.99609	0.23188	6.0753	27265.00391	41061.62109
	4129.23392	70.83562	1.73233	122.63472	213.03764	27542.22266	49612.375	1.23827	2.16553	0.29636	91.67934	0.24966	61.30672	16507.14648	1.73126	111.96346	84.29576	107.66337	16552.61523	0.22861	6.08584	27404.21289	41370.15234
	4129.38632	71.13543	1.71995	122.26166	212.96935	26919.25	49066.07031	1.23331	2.13551	0.28716	90.46797	0.24411	61.31071	15845.84082	1.71872	111.42825	83.76018	107.66737	16610.11523	0.22309	5.94237	27385.96875	41329.71875
	4129.53872	71.51618	1.7087	122.03326	212.90125	26255.27539	48434.44141	1.22791	2.10464	0.2779	89.22217	0.23845	61.30949	15165.69141	1.70637	110.88558	83.21706	107.66736	16634.375	0.21747	5.77787	27328.25586	41201.80859
	4129.69112	71.71239	1.6995	121.84703	212.84047	26000.28516	48313.84766	1.22557	2.08789	0.27235	88.54735	0.23502	61.31348	14843.50488	1.69911	110.56449	82.89558	107.67135	16735.17188	0.21406	5.74048	27389.11133	41336.67969
	4129.84352	71.59611	1.69732	121.57074	212.77591	26101.97266	48556.78125	1.22611	2.08705	0.27151	88.51647	0.2345	61.31749	14874.56934	1.69801	110.51897	82.84969	107.67535	16841.10547	0.21353	5.79695	27499.1875	41580.64844
	4129.99592	70.95876	1.70601	121.13397	212.72777	26878.6582	49548.58984	1.23186	2.11361	0.27845	89.59502	0.23879	61.32149	15543.69434	1.7071	110.93018	83.26052	107.67935	17002.44727	0.21781	6.0476	27744.83789	42125.08203
	4130.14832	70.33112	1.7159	120.67461	212.72557	27579.87109	50410.98828	1.23705	2.13833	0.28499	90.59872	0.2428	61.33073	16164.31152	1.71581	111.32166	83.6517	107.68739	17123.33984	0.22179	6.26968	27941.83203	42561.68359
	4130.30072	70.22222	1.71507	120.4618	212.75516	27534.79883	50346.57422	1.23676	2.13711	0.28472	90.55267	0.24263	61.33473	16128.91016	1.71544	111.30953	83.63919	107.69138	17108.83203	0.22162	6.25329	27922.96875	42519.87891
	4130.45312	70.22222	1.71732	120.62309	212.75346	27534.66211	50235.10156	1.23699	2.14128	0.28643	90.72481	0.24367	61.33871	16184.44141	1.71773	111.41383	83.74311	107.69537	17025.33008	0.22265	6.22795	27845.32031	42347.78125
	4130.60552	70.22222	1.72221	120.97003	212.66898	27627.66797	50167.88281	1.23804	2.15133	0.29008	91.13504	0.24588	61.3427	16357.56152	1.72267	111.63214	83.96105	107.69935	16905.16016	0.22486	6.21593	27744.23438	42123.74609
	4130.75792	69.98142	1.73161	121.3262	212.52634	28133.60742	50563.96094	1.24201	2.17696	0.29812	92.17583	0.25071	61.34148	16918.42969	1.73369	112.10332	84.43177	107.69935	16822.76563	0.22965	6.3233	27724.83984	42080.76172
	4130.91032	68.98473	1.76064	121.70592	212.3755	29800.99023	52133.5625	1.25423	2.24911	0.31961	95.10031	0.26332	61.34547	18634.70313	1.76424	113.36707	85.69514	107.70334	16749.42773	0.2422	6.7361	27832.68359	42319.77734
	4131.06272	68.1722	1.79414	122.29008	212.27419	31227.12695	53320.76953	1.26441	2.31351	0.33936	97.71086	0.27456	61.34946	20180.30664	1.79384	114.52931	86.85701	107.70732	16570.23047	0.25338	7.04506	27796.43555	42239.44141
	4131.21512	68.74493	1.79173	123.17826	212.22122	30481.54492	52131.08594	1.2605	2.30142	0.33804	97.22514	0.27382	61.35345	19656.77344	1.79182	114.45602	86.78335	107.71132	16237.1543	0.25264	6.73471	27402.49414	41366.34375
	4131.36752	68.80328	1.80235	124.26834	212.18369	30735.01367	51981.30469	1.26326	2.32649	0.34728	98.2439	0.27897	61.35742	20111.86719	1.80614	115.00176	87.32871	107.71529	15934.71973	0.25776	6.69118	27128.94531	40760.07031
	4131.51992	67.8903	1.84347	125.29152	212.12151	32584.18164	53546.71094	1.27603	2.40573	0.37155	101.45567	0.29217	61.36656	22102.91602	1.8455	116.4326	88.75925	107.72321	15721.89746	0.2709	7.07127	27070.6543	40630.87891
	4131.67232	67.83954	1.86229	126.01941	211.98508	33030.60547	53830.25781	1.27925	2.42771	0.3787	102.34957	0.29598	61.37055	22630.7793	1.85761	116.85608	89.18236	107.7272	15599.74023	0.27468	7.13339	26981.74805	40433.83594
	4131.82472	68.85664	1.83966	126.47621	211.7579	31653.44141	52336.71094	1.27099	2.38264	0.36632	100.52817	0.28937	61.37454	21311.80859	1.8368	116.13451	88.46041	107.73119	15512.4502	0.26811	6.76307	26787.18945	40002.63281
	4131.97712	70.09073	1.80957	126.72355	211.48154	29851.05273	50414.88281	1.25938	2.31925	0.34846	97.96494	0.27962	61.37852	19569.13867	1.80799	115.09116	87.41669	107.73518	15422.87305	0.25841	6.2932	26547.28125	39470.92578
	4132.12952	70.86141	1.7919	126.89423	211.23792	28738.22461	49191.64453	1.25184	2.27954	0.33734	96.36071	0.27342	61.37731	18511.51563	1.79074	114.43913	86.7642	107.73518	15340.06348	0.25225	5.99686	26365.81641	39068.74219
	4132.28192	71.36476	1.7794	126.93565	211.10516	28018.85742	48428.88672	1.24673	2.25195	0.32937	95.24702	0.26892	61.38129	17813.84375	1.77869	113.97623	86.30093	107.73916	15307.52051	0.24777	5.81371	26266.20313	38847.96875
	4132.43432	71.58883	1.77262	126.78668	211.12888	27637.35156	48072.57422	1.24381	2.23503	0.32423	94.56525	0.26598	61.38526	17419.74023	1.77104	113.67884	86.00316	107.74313	15326.41699	0.24485	5.72834	26247.23047	38805.91797
	4132.58672	71.56812	1.76747	126.49174	211.26764	27580.25781	48118.70313	1.24306	2.22837	0.32178	94.29876	0.26457	61.38922	17311.03711	1.76743	113.53925	85.8632	107.74709	15403.83301	0.24345	5.739	26316.11523	38958.58594
	4132.73912	71.39877	1.76755	126.21201	211.36092	27743.87305	48392.96875	1.24403	2.23078	0.32197	94.40016	0.26468	61.39837	17419.32617	1.76771	113.55821	85.88187	107.75503	15486.82031	0.24355	5.80464	26412.31836	39171.80469
