~VERSION	INFORMATION																						
VERS.	2	:Log	ASCII	Standard	-	VERSION	2																
WRAP.	NO	:One	Line	per	depth	step																	
PROD.	YuXH	:LAS	Producer																				
PROG.	YuXH2LAS	1	:LAS	Program	name	and	version																
CREA.	8/19/2013	15:01	:LAS	Creation	date	{YYYY/MM/DD	hh:mm}																
SOURCE.		:Data	File	Name																			
#--------------------------------------------------																							
~WELL	INFORMATION																						
#MENM.UNIT	DATA	DESCRIPTION																					
#----	------	--------------	-----------------------------																				
STRT	.m	2980.8999	:START	DEPTH																			
STOP	.m	4420.1099	:STOP	DEPTH																			
STEP	.m	0.1524	:STEP																				
NULL	.	-9999.9	:NULL	VALUE																			
COMP	.	unknown	:COMPANY																				
WELL	.	unknown	:WELL																				
FLD	.	unknown	:FIELD																				
LOC	.	unknown	:LOCATION																				
CNTY	.	unknown	:COUNTY																				
STAT	.	unknown	:STATE																				
CTRY	.	unknown	:COUNTRY																				
API	.	unknown	:API	NUMBER																			
UWI	.	unknown	:UNIQUE	WELL	ID																		
DATE	.	unknown	:LOG	DATE																			
SRVC	.	YuXH	:SERVICE	COMPANY																			
GDAT	.	unknown	:GeoDetic	Datum																			
#-----------------------------------------------------------------------------																							
~PARAMETER	INFORMATION																						
#MNEM.UNIT	VALUE	DESCRIPTION																					
#----	-----	--------------------	------------------------																				
RUN	.NONE	1	:RUN	NUMBER																			
LATI	.DEG	0	:LATITUDE																				
LONG	.DEG	0	:X-COORDINATE	OF	WELL	HEAD																	
XWELL.M	0	:Y-COORDINATE	OF	WELL	HEAD																		
YWELL.M	0	:LONGITUDE																					
PDAT	.M	0	:Permanent	Datum																			
EPD	.M	0	:Elevation	of	Permanent	Datum	above	Mean	Sea	Level													
LMF	.M	0	:Logging	Measured	From	(Name	of	Logging	Elevation	Reference)													
APD	.M	0	:Elevation	of	Depth	Reference	(LMF)	above	Permanent	Datum													
#-----------------------------------------------------------------------------																							
~CURVE	INFORMATION																						
#MNEM.UNIT	API	CODE	DESCRIPTION																				
#----	-----	--------	-----------------------																				
DEPT	.m	:	DEPTH	{F10.3}																			
DTC	.us/ft	:	DTC	{F10.3}																			
vpvs	.API	:	vpvs	{F10.3}																			
DTs	.us/ft	:	DTs	{F10.3}																			
DTst	.us/ft	:	DTst	{F10.3}																			
BMOD	.MPa	:	BMOD	{F10.3}																			
BULK	.MPa	:	BULK	{F10.3}																			
DMMI	.g/cm3	:	DMMI	{F10.3}																			
DMMX	.g/cm3	:	DMMX	{F10.3}																			
FI	.%	:	FI	{F10.3}																			
FRACP	.MPa	:	FRACP	{F10.3}																			
POIS	.%	:	POIS	{F10.3}																			
pp	.MPa	:	pp	{F10.3}																			
RL	.MPa	:	RL	{F10.3}																			
RMSC	.g/cm3	:	RMSC	{F10.3}																			
SH1	.MPa	:	SH1	{F10.3}																			
SH2	.MPa	:	SH2	{F10.3}																			
SHV	.MPa	:	SHV	{F10.3}																			
SMOD	.MPa	:	SMOD	{F10.3}																			
SPOIS	.%	:	SPOIS	{F10.3}																			
ST	.MPa	:	ST	{F10.3}																			
SYMOD	.MPa	:	SYMOD	{F10.3}																			
YMOD	.MPa	:	YMOD	{F10.3}																			
#-----------------------------------------------------------------------------																							
#																							
#	INDEX	DTC	vpvs	DTs	DTst	BMOD	BULK	DMMI	DMMX	FI	FRACP	POIS	pp	RL	RMSC	SH1	SH2	SHV	SMOD	SPOIS	ST	SYMOD	YMOD
#																							
~ASCII	DATA	SECTION																					
# ...
	3062.7387	53.03915	1.88971	100.24564	217.97121	47869.80078	76377.92188	1.22115	2.7272	0.39717	84.85983	0.30562	33.19481	33615.74219	1.89003	88.78287	63.76836	79.55267	21381.0918	0.28426	14.27484	33928.92969	55830.95703
	3062.8911	53.10078	1.88079	99.87627	218.52037	46732.17969	74998.42188	1.21533	2.6927	0.39205	83.82822	0.30297	33.20331	32599.05859	1.88088	88.5188	63.50426	79.55954	21199.68164	0.28164	13.78939	33664.63281	55245.19531
	3063.0435	52.85926	1.87847	99.39363	218.83818	46974.60156	75413.50781	1.2168	2.69704	0.39175	83.96274	0.30282	33.2067	32755.14844	1.88034	88.50629	63.49143	79.56293	21329.17773	0.28148	13.94392	33813.87891	55575.97266
	3063.1959	52.30497	1.8952	99.08856	218.92551	48418.39844	77040	1.22398	2.74371	0.3996	85.3681	0.30687	33.20506	34107.59766	1.89444	88.92257	63.9071	79.56293	21466.20117	0.28551	14.50981	34053.46484	56106.96484
	3063.3483	51.67042	1.91566	98.95863	218.81241	50415.50391	79208.52344	1.23348	2.80874	0.41084	87.32458	0.31259	33.20846	36018.99219	1.91519	89.52174	64.50595	79.56632	21594.76367	0.2912	15.26534	34316.59766	56690.15234
	3063.5007	51.43915	1.92729	99.134	218.21016	51784.03516	80784.92188	1.24	2.85037	0.41718	88.5788	0.31578	33.21693	37283.58594	1.92721	89.86471	64.84888	79.57317	21750.66992	0.29437	15.83129	34563.85938	57238.16016
	3063.6531	51.74403	1.92925	99.88981	216.45215	51933.77344	80866.10156	1.24053	2.85681	0.41888	88.7765	0.31663	33.22041	37467.60938	1.93046	89.95815	64.94199	79.57664	21699.24609	0.29522	15.84973	34519.39453	57139.61328
	3063.8055	52.27229	1.93071	101.36503	213.25789	51597.83984	79943.70313	1.23805	2.85848	0.42338	88.83096	0.31887	33.22393	37424.91016	1.93917	90.20025	65.18378	79.58016	21259.39648	0.29744	15.45425	34039.76563	56076.60938
	3063.9579	52.71127	1.95257	102.91108	210.42332	51255.11328	78829.91406	1.23536	2.86453	0.43007	89.01707	0.32217	33.2223	37467.71094	1.95235	90.5551	65.538	79.58016	20681.10156	0.30073	14.97142	33413.18359	54687.90234
	3064.1103	52.94112	1.95442	103.49949	208.39215	50909.96875	78185.65625	1.2335	2.86017	0.43139	88.8905	0.32282	33.22582	37272.12891	1.95499	90.62886	65.61143	79.58369	20456.76172	0.30138	14.71652	33157.50391	54121.24219
	3064.2627	53.05285	1.93769	102.83562	205.32808	50355.83594	78055.28906	1.23167	2.83191	0.42296	88.04647	0.31866	33.23452	36506.10938	1.93836	90.18919	65.17171	79.59075	20774.59375	0.29724	14.736	33458.90625	54789.24219
	3064.4151	53.11679	1.92251	102.01268	199.10657	50004.89453	78314.74219	1.23099	2.80576	0.41368	87.2655	0.31402	33.23808	35849.97266	1.92054	89.70083	64.68301	79.59431	21232.38672	0.29262	14.90314	33914.75781	55799.54688
	3064.5675	53.18378	1.90896	101.54277	193.70389	49961.10547	78773.48438	1.23157	2.79252	0.40768	86.87228	0.31099	33.23644	35554.91406	1.90928	89.38316	64.36473	79.59431	21609.2832	0.28961	15.11946	34302.57813	56659.08203
	3064.7199	53.30907	1.90023	101.31924	191.53764	49766.39063	78882.96875	1.23127	2.77886	0.40298	86.46603	0.3086	33.24003	35208.10156	1.9006	89.13774	64.11897	79.59789	21837.43164	0.28723	15.19176	34525.33203	57152.77344
	3064.8723	53.33098	1.89151	100.88404	192.04588	49425.46094	78779.3125	1.23029	2.76171	0.39807	85.95522	0.30608	33.24888	34748.53516	1.89166	88.8847	63.86586	79.60511	22015.38672	0.28473	15.18138	34685.46875	57507.6875
	3065.0247	53.01902	1.88832	100.18671	195.73225	49779.83594	79445.17969	1.23259	2.76705	0.39695	86.12011	0.3055	33.25247	34947.16016	1.88964	88.82903	63.80986	79.6087	22249.00977	0.28415	15.44566	34949.23828	58092.28516
	3065.1771	52.37677	1.88996	99.49464	201.72212	51359.89063	81459.25781	1.24058	2.81218	0.40243	87.48004	0.30832	33.25084	36310.20703	1.89959	89.11984	64.10005	79.6087	22574.52344	0.28695	16.20391	35390.03125	59069.21875
	3065.3295	51.63031	1.92174	99.17192	208.29504	54223.97656	84908.77344	1.25422	2.89698	0.41382	90.03171	0.31409	33.25444	38881.57422	1.92081	89.72739	64.70727	79.6123	23013.60156	0.2927	17.51727	36028.375	60483.98438
	3065.4819	51.01426	1.9437	99.12047	212.58926	56404.77734	87203.10156	1.26333	2.96616	0.42533	92.11456	0.31983	33.26336	41005.61719	1.943	90.34484	65.32464	79.61959	23098.74414	0.29841	18.36913	36249.04297	60973.05078
	3065.6343	50.64217	1.95923	99.20876	214.89787	57053.20703	87428.04688	1.26471	2.99418	0.43339	92.96098	0.3238	33.26697	41865.78125	1.95901	90.77608	65.75553	79.6232	22781.13477	0.30235	18.37992	35952.34766	60315.48828
	3065.7867	50.57036	1.96354	99.21012	214.85066	56923.53906	87096.66406	1.26371	2.99358	0.43479	92.94762	0.32448	33.27055	41836.97266	1.96182	90.85367	65.83279	79.62679	22629.84766	0.30303	18.22573	35785.53125	59945.76563
	3065.9391	50.76352	1.95006	99.02779	212.33203	55818.83203	85924.14844	1.25918	2.95954	0.42927	91.92958	0.32178	33.26892	40766.17188	1.95077	90.56133	65.53983	79.62679	22578.98828	0.30034	17.79543	35669.59766	59688.82422
	3066.0915	51.05227	1.93335	98.7278	208.67302	55340.8125	86003.05469	1.25874	2.93391	0.42064	91.16373	0.31751	33.27248	40009.69141	1.93386	90.10757	65.08574	79.63035	22996.67969	0.29609	17.91132	36079.13672	60596.48828
	3066.2439	51.16152	1.92415	98.43778	206.91742	55103.25	86121.08594	1.25888	2.91977	0.41553	90.74342	0.31495	33.28135	39594.33203	1.92406	89.84413	64.82223	79.63758	23263.37695	0.29355	18.0063	36342.62109	61180.44922
	3066.3963	50.9867	1.92597	98.3134	208.70206	56221.78516	87656.69531	1.26454	2.949	0.41771	91.62632	0.31604	33.28503	40504.32813	1.92822	89.96333	64.94109	79.64126	23576.18359	0.29464	18.63428	36737	62054.51953
	3066.5487	50.69811	1.92872	98.36899	212.21213	57208.38672	88580.52344	1.26808	2.98181	0.42395	92.61714	0.31915	33.28339	41522.31641	1.94029	90.29436	65.27149	79.64125	23529.10547	0.29773	18.9681	36747.07031	62076.83594
	3066.7011	50.46268	1.95344	98.55193	214.64316	57883.30469	88994.02344	1.26987	3.00762	0.43037	93.39725	0.32232	33.28706	42327.94531	1.95297	90.63882	65.61562	79.64492	23333.03906	0.30088	19.07772	36580.45703	61707.57422
	3066.8535	50.25472	1.96361	98.66463	216.48697	58782.10547	89869.23438	1.27325	3.03636	0.43551	94.26572	0.32484	33.29598	43238.54297	1.96329	90.91863	65.89535	79.65221	23315.3418	0.30338	19.3961	36612.29297	61778.13281
	3067.0059	50.08361	1.96982	98.64957	217.44965	59942.19141	91329.11719	1.27836	3.06776	0.43866	95.21432	0.32637	33.29967	44248.72656	1.9697	91.08939	66.06577	79.65591	23540.19727	0.30491	19.99275	36913.67578	62446.08594
	3067.1583	49.9725	1.97195	98.54591	217.84727	60653.62109	92300.14063	1.2816	3.08574	0.43979	95.75936	0.32692	33.29804	44830.35938	1.972	91.14933	66.12508	79.65591	23734.88867	0.30545	20.40575	37158.40234	62988.48047
	3067.3107	49.90681	1.97202	98.44508	217.64975	60426.79688	91927.00781	1.28036	3.08085	0.44007	95.61706	0.32705	33.30175	44676.6875	1.97258	91.16805	66.14345	79.65961	23625.16211	0.30559	20.23752	37029.91016	62703.69922
	3067.4631	49.83786	1.97507	98.42357	215.82054	59895.26563	91008.07813	1.27732	3.07023	0.44118	95.30273	0.32759	33.30544	44338.86328	1.97488	91.23109	66.20614	79.6633	23334.60547	0.30613	19.82088	36693.34766	61957.76953
	3067.6155	49.76226	1.97966	98.49995	212.49651	60162.59375	91197.42969	1.27816	3.07971	0.44337	95.59253	0.32865	33.31434	44645.17578	1.97941	91.35461	66.3296	79.67057	23276.12891	0.30718	19.8753	36645.54688	61851.82813
	3067.7679	49.69081	1.98378	98.65147	210.33994	61485.80469	92918.97656	1.284	3.11421	0.4462	96.63437	0.33002	33.31803	45769.21875	1.98531	91.50834	66.48298	79.67426	23574.87891	0.30853	20.59423	37032.70703	62709.89453
	3067.9203	49.63026	1.98566	98.91246	211.13324	62821.44531	94565.51563	1.28944	3.15013	0.44985	97.71916	0.33176	33.31641	46949.41016	1.99299	91.70189	66.6759	79.67427	23808.05469	0.31027	21.27764	37350.11328	63413.36719
	3068.0727	49.61356	2.00174	99.29572	213.92628	63003.11328	94439.45313	1.2891	3.15959	0.45378	98.00841	0.33364	33.32014	47284.94141	2.00138	91.91445	66.88812	79.67801	23577.25391	0.31214	21.16209	37112.67969	62887.14453
	3068.2251	49.64463	2.00808	99.68282	214.91278	62494.16797	93373.34375	1.28584	3.1521	0.45681	97.78815	0.33508	33.32923	47054.58203	2.00793	92.08276	67.05634	79.68546	23159.38086	0.31357	20.64136	36639.86719	61839.24609
