~VERSION	INFORMATION																						
VERS.	2	:Log	ASCII	Standard	-	VERSION	2																
WRAP.	NO	:One	Line	per	depth	step																	
PROD.	YuXH	:LAS	Producer																				
PROG.	YuXH2LAS	1	:LAS	Program	name	and	version																
CREA.	8/19/2013	15:01	:LAS	Creation	date	{YYYY/MM/DD	hh:mm}																
SOURCE.		:Data	File	Name																			
#--------------------------------------------------																							
~WELL	INFORMATION																						
#MENM.UNIT	DATA	DESCRIPTION																					
#----	------	--------------	-----------------------------																				
STRT	.m	2980.8999	:START	DEPTH																			
STOP	.m	4420.1099	:STOP	DEPTH																			
STEP	.m	0.1524	:STEP																				
NULL	.	-9999.9	:NULL	VALUE																			
COMP	.	unknown	:COMPANY																				
WELL	.	unknown	:WELL																				
FLD	.	unknown	:FIELD																				
LOC	.	unknown	:LOCATION																				
CNTY	.	unknown	:COUNTY																				
STAT	.	unknown	:STATE																				
CTRY	.	unknown	:COUNTRY																				
API	.	unknown	:API	NUMBER																			
UWI	.	unknown	:UNIQUE	WELL	ID																		
DATE	.	unknown	:LOG	DATE																			
SRVC	.	YuXH	:SERVICE	COMPANY																			
GDAT	.	unknown	:GeoDetic	Datum																			
#-----------------------------------------------------------------------------																							
~PARAMETER	INFORMATION																						
#MNEM.UNIT	VALUE	DESCRIPTION																					
#----	-----	--------------------	------------------------																				
RUN	.NONE	1	:RUN	NUMBER																			
LATI	.DEG	0	:LATITUDE																				
LONG	.DEG	0	:X-COORDINATE	OF	WELL	HEAD																	
XWELL.M	0	:Y-COORDINATE	OF	WELL	HEAD																		
YWELL.M	0	:LONGITUDE																					
PDAT	.M	0	:Permanent	Datum																			
EPD	.M	0	:Elevation	of	Permanent	Datum	above	Mean	Sea	Level													
LMF	.M	0	:Logging	Measured	From	(Name	of	Logging	Elevation	Reference)													
APD	.M	0	:Elevation	of	Depth	Reference	(LMF)	above	Permanent	Datum													
#-----------------------------------------------------------------------------																							
~CURVE	INFORMATION																						
#MNEM.UNIT	API	CODE	DESCRIPTION																				
#----	-----	--------	-----------------------																				
DEPT	.m	:	DEPTH	{F10.3}																			
DTC	.us/ft	:	DTC	{F10.3}																			
vpvs	.API	:	vpvs	{F10.3}																			
DTs	.us/ft	:	DTs	{F10.3}																			
DTst	.us/ft	:	DTst	{F10.3}																			
BMOD	.MPa	:	BMOD	{F10.3}																			
BULK	.MPa	:	BULK	{F10.3}																			
DMMI	.g/cm3	:	DMMI	{F10.3}																			
DMMX	.g/cm3	:	DMMX	{F10.3}																			
FI	.%	:	FI	{F10.3}																			
FRACP	.MPa	:	FRACP	{F10.3}																			
POIS	.%	:	POIS	{F10.3}																			
pp	.MPa	:	pp	{F10.3}																			
RL	.MPa	:	RL	{F10.3}																			
RMSC	.g/cm3	:	RMSC	{F10.3}																			
SH1	.MPa	:	SH1	{F10.3}																			
SH2	.MPa	:	SH2	{F10.3}																			
SHV	.MPa	:	SHV	{F10.3}																			
SMOD	.MPa	:	SMOD	{F10.3}																			
SPOIS	.%	:	SPOIS	{F10.3}																			
ST	.MPa	:	ST	{F10.3}																			
SYMOD	.MPa	:	SYMOD	{F10.3}																			
YMOD	.MPa	:	YMOD	{F10.3}																			
#-----------------------------------------------------------------------------																							
#																							
#	INDEX	DTC	vpvs	DTs	DTst	BMOD	BULK	DMMI	DMMX	FI	FRACP	POIS	pp	RL	RMSC	SH1	SH2	SHV	SMOD	SPOIS	ST	SYMOD	YMOD
#																							
~ASCII	DATA	SECTION																					
# ...
	3547.52311	48.89388	1.98148	97.01572	198.28513	68065.79688	102920.9844	1.37226	3.17509	0.44568	113.86285	0.32976	45.91421	50638.19922	1.98421	104.63973	78.42451	92.27207	26141.39258	0.30828	25.27532	40107.10938	69523.73438
	3547.67551	48.79691	1.98584	97.06529	200.72873	68543.42188	103379.5781	1.3736	3.188	0.44804	114.31679	0.3309	45.92354	51125.33984	1.98917	104.77893	78.5635	92.27999	26127.11914	0.30941	25.46048	40116.72656	69545.05469
	3547.82791	48.69304	1.997	97.14992	203.99573	69361.29688	104295.7813	1.3762	3.20872	0.45086	115.04198	0.33225	45.92752	51894.05859	1.99515	104.94002	78.72421	92.28397	26200.86133	0.31076	25.86325	40237.26172	69812.1875
	3547.98031	48.63749	1.99996	97.29389	205.58571	69792.74219	104668.7656	1.37715	3.22046	0.45332	115.45502	0.33342	45.9315	52354.73047	2.00039	105.08044	78.86426	92.28796	26157.01953	0.31192	26.00339	40212.16406	69756.57031
	3548.13271	48.6446	2.00163	97.46723	204.47946	69964.44531	104755.4922	1.37721	3.22546	0.45484	115.63387	0.33414	45.9301	52568.91797	2.00366	105.16525	78.94853	92.28796	26093.28906	0.31264	26.01797	40152.52344	69624.38281
	3548.28511	48.71113	2.00386	97.61819	200.94182	69751.5	104417.8828	1.3762	3.22087	0.45501	115.47929	0.33422	45.93409	52418.30469	2.00402	105.17876	78.96167	92.29195	25999.78711	0.31272	25.84738	40041.82422	69379.04688
	3548.43751	48.78512	2.00175	97.69839	195.84535	69281.48438	103786.1641	1.37445	3.21002	0.45436	115.10702	0.33392	45.94346	52029.14063	2.00263	105.15083	78.93353	92.29991	25878.51367	0.31241	25.54756	39888.62109	69039.5
	3548.58991	48.83104	1.99916	97.66479	192.68085	69003.44531	103502.2813	1.37369	3.20278	0.45316	114.86014	0.33335	45.94743	51754.03125	2.00006	105.08847	78.87079	92.30389	25874.12891	0.31185	25.42986	39870.04297	68998.32031
	3548.74231	48.82828	1.99777	97.54343	191.84041	69094.17969	103761.6641	1.37448	3.20361	0.45205	114.89374	0.33282	45.94602	51760.43359	1.99768	105.02712	78.80891	92.30389	26000.61719	0.31132	25.57763	40009.83203	69308.14063
	3548.89471	48.77883	1.99744	97.42109	191.94357	69532.67188	104445.5234	1.37659	3.21307	0.45183	115.22792	0.33271	45.95	52076.24219	1.9972	105.01871	78.80013	92.30787	26184.64063	0.31121	25.92003	40228.61328	69793.02344
	3549.04711	48.752	1.99755	97.40762	192.69446	69928.13281	104996.1328	1.37834	3.2223	0.45221	115.5537	0.33289	45.95942	52394.13281	1.99802	105.04825	78.82943	92.31588	26301.00195	0.3114	26.1869	40372.91797	70112.85156
	3549.19951	48.83443	1.99488	97.5133	195.21088	69862.71094	104961.6328	1.3783	3.22032	0.45165	115.48978	0.33262	45.96346	52313.25	1.99681	105.021	78.8018	92.31991	26324.19336	0.31113	26.18017	40394.39453	70160.45313
	3549.35191	49.04028	1.98658	97.61086	200.04243	69000.48438	104002.3828	1.37554	3.19827	0.44863	114.72803	0.33118	45.96205	51499.53906	1.99042	104.85391	78.63419	92.31992	26251.42383	0.30969	25.75771	40272.76563	69890.875
	3549.50431	49.29834	1.98078	97.5552	204.26111	67752.57031	102731.4609	1.37205	3.1653	0.44312	113.58594	0.32853	45.96607	50263.125	1.97887	104.55159	78.33147	92.32394	26234.16797	0.30705	25.22485	40189.20703	69705.69531
	3549.65671	49.54928	1.97411	97.37852	206.7177	66647.05469	101784.3203	1.36964	3.13419	0.4365	112.50869	0.32532	45.97552	49078.42188	1.96529	104.19202	77.97168	92.33198	26352.94922	0.30386	24.86538	40255.26563	69852.09375
	3549.80911	49.7584	1.96102	97.21664	208.2975	65838.50781	101179.9922	1.36813	3.11018	0.43078	111.67815	0.32252	45.97956	48167.75781	1.95377	103.87853	77.65781	92.33601	26506.11914	0.30108	24.65433	40371.53516	70109.78906
	3549.96151	49.8697	1.94888	97.16426	208.93082	65378.78906	100774.3984	1.36702	3.09697	0.42805	111.22338	0.32118	45.98359	47680.98438	1.94836	103.73142	77.51033	92.34004	26546.70703	0.29975	24.49482	40387.87109	70145.98438
	3550.11391	49.80912	1.94964	97.16956	208.38943	65401.58203	100671.2578	1.36653	3.09869	0.4293	111.28791	0.3218	45.98218	47766.74219	1.95084	103.80106	77.57943	92.34004	26452.25586	0.30036	24.42755	40289.94922	69928.96875
	3550.26631	49.59326	1.95371	97.17461	207.64104	66169.15625	101374.3203	1.36852	3.12034	0.4336	112.04596	0.3239	45.9862	48566.56641	1.95943	104.04401	77.82199	92.34406	26403.87891	0.30246	24.7084	40282.49219	69912.4375
	3550.41871	49.3208	1.96316	97.14629	206.92955	67108.89844	102249.3203	1.37104	3.14653	0.43865	112.9622	0.32637	45.99562	49538.68359	1.96968	104.33279	78.11056	92.35208	26355.31836	0.30491	25.05976	40283.05469	69913.67969
	3550.57111	49.08708	1.9776	97.03288	205.60629	68037.26563	103277.7734	1.37403	3.17058	0.44209	113.80369	0.32803	45.99962	50417.01563	1.97675	104.52792	78.30531	92.35608	26430.37695	0.30656	25.51078	40412.62109	70200.84375
	3550.72351	48.96878	1.97792	96.88712	203.78929	68650.59375	104110.7656	1.3765	3.18499	0.44296	114.31017	0.32845	45.99822	50920.50781	1.97855	104.57645	78.3533	92.35609	26595.12891	0.30698	25.9094	40620.13672	70660.76563
	3550.87591	48.95554	1.97703	96.78589	202.77081	68682.71094	104243.0078	1.37699	3.18501	0.44222	114.31564	0.3281	46.00224	50902.5625	1.97702	104.53952	78.316	92.36011	26670.2207	0.30662	25.98771	40701.55078	70841.20313
	3551.02831	48.94687	1.97699	96.78352	203.9339	68739.35938	104312.5078	1.3773	3.18651	0.44236	114.3727	0.32817	46.01168	50952.79297	1.97732	104.55576	78.33201	92.36814	26679.85547	0.30669	26.01992	40714.79688	70870.55469
	3551.18071	48.94235	1.97813	96.87383	206.31299	68798.07813	104291.0703	1.37716	3.18869	0.44334	114.45376	0.32864	46.01571	51051.58594	1.97935	104.61432	78.39019	92.37216	26619.74219	0.30716	25.99272	40654.09766	70736.03125
	3551.33311	49.01046	1.97953	97.02427	206.62128	68429.92188	103715.7422	1.37527	3.18044	0.4435	114.17122	0.32871	46.01429	50787.01172	1.97966	104.6231	78.39844	92.37216	26464.36328	0.30724	25.70415	40469.57422	70327.07031
	3551.48551	49.11319	1.97933	97.22244	205.63501	68078.72656	103189.1406	1.37365	3.17252	0.44345	113.90077	0.32869	46.01831	50523.51953	1.97956	104.62446	78.39942	92.37617	26332.8125	0.30721	25.44464	40311.25781	69976.1875
	3551.63791	49.19587	1.98005	97.47427	205.08379	67862.17188	102765.0781	1.37236	3.16864	0.44431	113.77044	0.3291	46.02773	50410.71875	1.98135	104.68046	78.45519	92.38419	26177.18164	0.30763	25.22169	40134.47266	69584.375
	3551.79031	49.23985	1.98269	97.77441	205.68645	67824.46875	102478.5859	1.37135	3.16981	0.44638	113.81601	0.3301	46.03172	50497.40625	1.98568	104.79967	78.57403	92.38818	25990.58789	0.30862	25.04675	39934.04688	69140.17188
	3551.94271	49.25216	1.99934	98.20533	207.2442	68010.0625	102327.0938	1.37065	3.1777	0.45029	114.09548	0.33198	46.03572	50851.54297	1.99393	105.02122	78.79521	92.39217	25737.77344	0.31048	24.90606	39674.15234	68564.16406
	3552.09511	49.19053	2.01883	98.90494	207.91946	68745.21875	102575.9531	1.3709	3.20107	0.45807	114.91386	0.33567	46.03431	51829.85156	2.01065	105.45359	79.22704	92.39217	25373.04883	0.31416	24.88742	39320.42188	67780.19531
	3552.24751	49.12782	2.02995	99.93092	209.29453	69640.73438	102752.9688	1.37095	3.23024	0.46865	115.93428	0.34064	46.03831	53084.62109	2.0341	106.04568	79.81876	92.39617	24834.17188	0.3191	24.76795	38782.23828	66587.40625
	3552.39991	49.22255	2.04266	101.24824	210.2823	69995.35938	102202.6484	1.36923	3.24715	0.4786	116.5283	0.34525	46.0477	53891.71875	2.05695	106.60706	80.37991	92.40415	24155.46484	0.32369	24.297	38061.63281	64990.31641
	3552.55231	49.62482	2.06264	102.74823	211.30914	69249.76563	100510.5313	1.36467	3.2376	0.48435	116.20061	0.34788	46.05168	53619.38672	2.0705	106.93068	80.70316	92.40813	23445.57031	0.32631	23.37741	37255.57031	63203.83594
	3552.70471	50.39972	2.06832	104.35321	212.20949	67019.9375	97273.63281	1.35612	3.19339	0.48436	114.66646	0.34789	46.05026	51893.09375	2.07051	106.93123	80.70317	92.40813	22690.26953	0.32631	21.89584	36336.91797	61167.81641
	3552.85711	51.33614	2.06539	106.01383	212.98488	64187.71484	93384.48438	1.34592	3.13642	0.48207	112.68752	0.34684	46.05424	49589.32813	2.06509	106.80843	80.57999	92.41211	21897.57813	0.32527	20.22224	35352.10156	58985.15625
	3553.00951	52.17707	2.06451	107.79324	213.73088	61983.57422	90145.1875	1.33775	3.09628	0.48242	111.29482	0.347	46.06356	47902.76563	2.06591	106.83575	80.6071	92.42002	21121.21289	0.32543	18.8377	34411.54297	56900.58594
