~VERSION	INFORMATION																						
VERS.	2	:Log	ASCII	Standard	-	VERSION	2																
WRAP.	NO	:One	Line	per	depth	step																	
PROD.	YuXH	:LAS	Producer																				
PROG.	YuXH2LAS	1	:LAS	Program	name	and	version																
CREA.	8/19/2013	15:01	:LAS	Creation	date	{YYYY/MM/DD	hh:mm}																
SOURCE.		:Data	File	Name																			
#--------------------------------------------------																							
~WELL	INFORMATION																						
#MENM.UNIT	DATA	DESCRIPTION																					
#----	------	--------------	-----------------------------																				
STRT	.m	2980.8999	:START	DEPTH																			
STOP	.m	4420.1099	:STOP	DEPTH																			
STEP	.m	0.1524	:STEP																				
NULL	.	-9999.9	:NULL	VALUE																			
COMP	.	unknown	:COMPANY																				
WELL	.	unknown	:WELL																				
FLD	.	unknown	:FIELD																				
LOC	.	unknown	:LOCATION																				
CNTY	.	unknown	:COUNTY																				
STAT	.	unknown	:STATE																				
CTRY	.	unknown	:COUNTRY																				
API	.	unknown	:API	NUMBER																			
UWI	.	unknown	:UNIQUE	WELL	ID																		
DATE	.	unknown	:LOG	DATE																			
SRVC	.	YuXH	:SERVICE	COMPANY																			
GDAT	.	unknown	:GeoDetic	Datum																			
#-----------------------------------------------------------------------------																							
~PARAMETER	INFORMATION																						
#MNEM.UNIT	VALUE	DESCRIPTION																					
#----	-----	--------------------	------------------------																				
RUN	.NONE	1	:RUN	NUMBER																			
LATI	.DEG	0	:LATITUDE																				
LONG	.DEG	0	:X-COORDINATE	OF	WELL	HEAD																	
XWELL.M	0	:Y-COORDINATE	OF	WELL	HEAD																		
YWELL.M	0	:LONGITUDE																					
PDAT	.M	0	:Permanent	Datum																			
EPD	.M	0	:Elevation	of	Permanent	Datum	above	Mean	Sea	Level													
LMF	.M	0	:Logging	Measured	From	(Name	of	Logging	Elevation	Reference)													
APD	.M	0	:Elevation	of	Depth	Reference	(LMF)	above	Permanent	Datum													
#-----------------------------------------------------------------------------																							
~CURVE	INFORMATION																						
#MNEM.UNIT	API	CODE	DESCRIPTION																				
#----	-----	--------	-----------------------																				
DEPT	.m	:	DEPTH	{F10.3}																			
DTC	.us/ft	:	DTC	{F10.3}																			
vpvs	.API	:	vpvs	{F10.3}																			
DTs	.us/ft	:	DTs	{F10.3}																			
DTst	.us/ft	:	DTst	{F10.3}																			
BMOD	.MPa	:	BMOD	{F10.3}																			
BULK	.MPa	:	BULK	{F10.3}																			
DMMI	.g/cm3	:	DMMI	{F10.3}																			
DMMX	.g/cm3	:	DMMX	{F10.3}																			
FI	.%	:	FI	{F10.3}																			
FRACP	.MPa	:	FRACP	{F10.3}																			
POIS	.%	:	POIS	{F10.3}																			
pp	.MPa	:	pp	{F10.3}																			
RL	.MPa	:	RL	{F10.3}																			
RMSC	.g/cm3	:	RMSC	{F10.3}																			
SH1	.MPa	:	SH1	{F10.3}																			
SH2	.MPa	:	SH2	{F10.3}																			
SHV	.MPa	:	SHV	{F10.3}																			
SMOD	.MPa	:	SMOD	{F10.3}																			
SPOIS	.%	:	SPOIS	{F10.3}																			
ST	.MPa	:	ST	{F10.3}																			
SYMOD	.MPa	:	SYMOD	{F10.3}																			
YMOD	.MPa	:	YMOD	{F10.3}																			
#-----------------------------------------------------------------------------																							
#																							
#	INDEX	DTC	vpvs	DTs	DTst	BMOD	BULK	DMMI	DMMX	FI	FRACP	POIS	pp	RL	RMSC	SH1	SH2	SHV	SMOD	SPOIS	ST	SYMOD	YMOD
#																							
~ASCII	DATA	SECTION																					
# ...
	4228.14152	78.09985	1.78733	139.87144	211.18523	23596.13672	40383.66016	1.2374	2.23105	0.33746	96.59032	0.27349	63.90376	15202.375	1.79093	117.0295	89.11662	110.26044	12590.64355	0.25232	4.04157	23207.16406	32068.18359
	4228.29392	78.70944	1.79222	141.47795	211.09335	23440.05078	39910.28125	1.23798	2.24044	0.34172	96.9829	0.27588	63.90774	15204.93457	1.79747	117.28507	89.37183	110.26442	12352.67285	0.25469	3.94632	22960.25	31520.94531
	4228.44632	79.35064	1.80062	142.87471	211.03883	23137.91406	39301.51563	1.23726	2.24279	0.3437	97.08363	0.27698	63.91171	15056.1123	1.80055	117.40653	89.49291	110.26839	12122.70215	0.25579	3.82625	22707.58398	30960.95508
	4228.59872	79.97353	1.8011	144.033	211.04938	22759.64063	38645.22266	1.23572	2.2402	0.344	96.97982	0.27715	63.9157	14816.85156	1.80101	117.42808	89.51408	110.27238	11914.18457	0.25595	3.69943	22469.06836	30432.33008
	4228.75112	80.3799	1.80488	145.00049	211.14784	22562.16211	38223.27344	1.2354	2.2432	0.34588	97.10781	0.27819	63.91451	14731.60645	1.80394	117.53935	89.62491	110.27238	11745.83301	0.25699	3.61847	22286.11523	30026.85156
	4228.90352	80.52188	1.80661	145.76956	211.40834	22588.90234	38082.86328	1.23684	2.25384	0.34993	97.55238	0.28043	63.91849	14841.92285	1.81031	117.78309	89.86827	110.27635	11620.4707	0.25922	3.59038	22165.0332	29758.49609
	4229.05592	80.62056	1.81161	146.34572	211.96909	22620.46875	37994.69531	1.23801	2.2621	0.35304	97.89813	0.28214	63.92246	14933.35449	1.81524	117.97091	90.05572	110.28033	11530.6709	0.26092	3.57238	22079.06836	29567.9707
	4229.20832	80.80254	1.81593	146.744	212.86227	22526.76758	37813.51172	1.2378	2.26266	0.35356	97.92497	0.28243	63.92644	14883.39551	1.81608	118.00617	90.09061	110.2843	11465.05859	0.26121	3.53814	22006.14844	29406.35938
	4229.36072	81.57633	1.79694	146.97475	213.86089	21875.1543	37123.96875	1.2321	2.23371	0.34443	96.72833	0.27739	63.93556	14250.74902	1.80168	117.47409	89.55822	110.29224	11436.60938	0.25619	3.41378	21921.1543	29217.98438
	4229.51312	82.22222	1.78843	147.09659	214.62679	21397.97656	36677.61328	1.22731	2.20841	0.33621	95.6834	0.27279	63.93956	13758.1582	1.78901	116.99179	89.07555	110.29624	11459.72656	0.25161	3.33401	21900.20508	29171.55273
	4229.66552	82.22222	1.78923	147.18475	215.08922	21460.62695	36753.56641	1.22784	2.21077	0.33691	95.78456	0.27318	63.94356	13814.15625	1.79008	117.03745	89.12083	110.30024	11469.70508	0.25201	3.34772	21915.75977	29206.0293
	4229.81792	82.22222	1.7909	147.2448	215.34741	21489.22461	36781.17188	1.22814	2.21226	0.33739	95.84964	0.27345	63.94756	13843.25	1.79082	117.06982	89.15282	110.30424	11468.96094	0.25227	3.35267	21917.6875	29210.29883
	4229.97032	82.22222	1.78969	147.181	215.4726	21444.85156	36727.88281	1.22772	2.21048	0.33688	95.77929	0.27316	63.94638	13803.33398	1.79004	117.03989	89.12244	110.30424	11462.27539	0.25199	3.34305	21907.05078	29186.72461
	4230.12272	81.62064	1.80531	146.99687	215.53459	21855.78906	37111.41406	1.23188	2.23231	0.34398	96.68774	0.27714	63.95038	14227.97656	1.80098	117.46373	89.5459	110.30824	11441.71875	0.25594	3.41161	21924.43555	29225.25391
	4230.27512	80.39276	1.81229	146.98836	215.57155	22966.00391	38203.28125	1.24224	2.28602	0.36119	98.91781	0.2866	63.95435	15347.36426	1.82838	118.48587	90.56767	110.31222	11427.95898	0.26535	3.60712	22006.13086	29406.31641
	4230.42752	80.103	1.83425	147.07353	215.60162	23228.7793	38427.63672	1.24487	2.30025	0.36587	99.51141	0.28913	63.95832	15629.34863	1.83606	118.76689	90.84831	110.31618	11399.14453	0.26787	3.64636	21998.72266	29389.89844
	4230.57992	80.73688	1.81941	147.09953	215.64058	22663.29297	37877.03125	1.23972	2.2733	0.35723	98.39763	0.28444	63.9623	15056.42383	1.82196	118.25984	90.34089	110.32016	11410.30469	0.2632	3.54813	21963.44727	29311.7168
	4230.73232	81.29692	1.80903	147.19878	215.70137	22236.3418	37479.33984	1.23567	2.25153	0.35013	97.4985	0.28055	63.97144	14614.84082	1.81063	117.84808	89.92883	110.32812	11432.25098	0.25933	3.4774	21948.71094	29279.05664
	4230.88472	81.72802	1.80642	147.42062	215.77948	21874.29492	37062.05469	1.2327	2.23726	0.34578	96.91044	0.27814	63.97543	14280.41602	1.8038	117.59497	89.67533	110.33211	11390.81934	0.25694	3.40198	21876.10156	29118.13281
	4231.03712	82.02657	1.80288	147.73166	215.85394	21626.12891	36720.16406	1.23106	2.23058	0.34401	96.63703	0.27715	63.97939	14079.1123	1.80102	117.49384	89.57383	110.33607	11320.52637	0.25596	3.34005	21784.92773	28916.06055
	4231.18952	82.19632	1.79994	147.96333	215.90096	21523.14648	36570.85547	1.23044	2.22823	0.34343	96.54284	0.27683	63.98338	13999.29199	1.80012	117.46364	89.54326	110.34006	11285.78125	0.25563	3.3131	21741.59766	28820.03125
	4231.34192	82.23716	1.79888	147.95128	215.8849	21478.48438	36524.51953	1.22997	2.22603	0.34276	96.45511	0.27646	63.98219	13955.46875	1.79908	117.4241	89.50327	110.34006	11284.52441	0.25526	3.30489	21736.34375	28808.38672
	4231.49432	82.13971	1.79885	147.75099	215.72156	21525.59766	36613.30078	1.23012	2.22592	0.34256	96.45418	0.27635	63.98617	13981.74609	1.79878	117.41656	89.49535	110.34403	11315.77832	0.25515	3.32103	21771.22656	28885.69922
	4231.64672	81.94241	1.79895	147.5462	215.27237	21668.5957	36804.06641	1.23114	2.23018	0.34374	96.63432	0.277	63.99015	14100.86035	1.80061	117.49046	89.56887	110.34801	11351.60449	0.25581	3.3554	21819.22852	28992.08398
	4231.79912	81.65092	1.80119	147.39563	214.53595	21895.79883	37058.67578	1.23311	2.23969	0.34668	97.032	0.27864	63.99412	14314.36035	1.80519	117.66827	89.74631	110.35198	11372.1582	0.25743	3.40107	21859.66016	29081.69336
	4231.95152	81.31975	1.81226	147.28191	213.80969	22188.91797	37384.86719	1.2357	2.25201	0.35046	97.54665	0.28073	64.00326	14590.94238	1.81115	117.89993	89.97768	110.35994	11396.96289	0.25951	3.45976	21909.77539	29192.76563
	4232.10392	81.06013	1.81658	147.19582	213.54373	22490.69922	37758.54297	1.23797	2.26225	0.35344	97.97469	0.28237	64.00725	14856.77832	1.81588	118.08044	90.1578	110.36393	11450.88281	0.26114	3.52792	21989.04297	29368.44531
	4232.25632	80.91347	1.81867	147.13194	213.83244	22669.63281	37988.02344	1.23925	2.26779	0.355	98.20833	0.28322	64.01125	15010.43848	1.81839	118.17713	90.25412	110.36794	11488.79199	0.26199	3.57015	22041.80664	29485.38867
	4232.40872	80.85641	1.81907	147.09113	214.39429	22709.76172	38033.28125	1.23959	2.26939	0.35549	98.27799	0.28349	64.01526	15048.00391	1.81916	118.20997	90.28658	110.37194	11492.6377	0.26226	3.5784	22049.01758	29501.36719
	4232.56112	80.96349	1.8192	147.07278	214.8878	22528.58789	37803.83984	1.23831	2.26363	0.35384	98.04266	0.28259	64.01925	14890.96094	1.81653	118.11677	90.193	110.37593	11456.44043	0.26136	3.53619	21997.77734	29387.80273
	4232.71352	81.37448	1.80499	147.07333	215.21584	22038.25195	37237.83594	1.23427	2.2445	0.34806	97.25249	0.2794	64.01807	14438.45801	1.80736	117.77466	89.85044	110.37593	11399.68945	0.25819	3.43354	21899.31055	29169.57031
	4232.86592	82.01842	1.7906	147.09062	215.43523	21434.18164	36612.34375	1.22869	2.21617	0.33906	96.08106	0.27439	64.02203	13845.10156	1.79339	117.24653	89.32194	110.37989	11383.62109	0.25321	3.32166	21829.28906	29014.38477
	4233.01832	82.54116	1.78666	147.12482	215.58432	20974.30469	36142.03516	1.22427	2.19367	0.33187	95.1511	0.27034	64.02599	13390.43848	1.78244	116.82502	88.90005	110.38386	11375.79883	0.24918	3.23782	21778.66602	28902.18555
	4233.17072	82.73767	1.78102	147.17647	215.67441	20820.84961	35983.30859	1.2228	2.18615	0.32947	94.84267	0.26897	64.02996	13239.61816	1.77883	116.68697	88.76162	110.38783	11371.8457	0.24782	3.20957	21760.13672	28861.12109
	4233.32312	82.73804	1.78039	147.26941	215.66508	20879.64844	36052.03125	1.22339	2.18868	0.33021	94.95104	0.2694	64.03908	13293.45703	1.77995	116.73898	88.81334	110.39576	11379.28809	0.24824	3.22181	21773.00391	28889.63477
	4233.47552	82.71803	1.78289	147.43634	215.54948	20948.75586	36099.33203	1.22426	2.1935	0.33184	95.15415	0.27032	64.04305	13373.46875	1.7824	116.83938	88.91336	110.39973	11362.93164	0.24916	3.23018	21763.74219	28869.11133
	4233.62792	82.64689	1.78754	147.64902	215.38811	21018.60742	36099.78516	1.2255	2.20113	0.33456	95.47446	0.27186	64.04702	13478.01953	1.7865	117.00411	89.07772	110.4037	11310.88281	0.25069	3.23	21719.75781	28771.62695
