~VERSION	INFORMATION																						
VERS.	2	:Log	ASCII	Standard	-	VERSION	2																
WRAP.	NO	:One	Line	per	depth	step																	
PROD.	YuXH	:LAS	Producer																				
PROG.	YuXH2LAS	1	:LAS	Program	name	and	version																
CREA.	8/19/2013	15:01	:LAS	Creation	date	{YYYY/MM/DD	hh:mm}																
SOURCE.		:Data	File	Name																			
#--------------------------------------------------																							
~WELL	INFORMATION																						
#MENM.UNIT	DATA	DESCRIPTION																					
#----	------	--------------	-----------------------------																				
STRT	.m	2980.8999	:START	DEPTH																			
STOP	.m	4420.1099	:STOP	DEPTH																			
STEP	.m	0.1524	:STEP																				
NULL	.	-9999.9	:NULL	VALUE																			
COMP	.	unknown	:COMPANY																				
WELL	.	unknown	:WELL																				
FLD	.	unknown	:FIELD																				
LOC	.	unknown	:LOCATION																				
CNTY	.	unknown	:COUNTY																				
STAT	.	unknown	:STATE																				
CTRY	.	unknown	:COUNTRY																				
API	.	unknown	:API	NUMBER																			
UWI	.	unknown	:UNIQUE	WELL	ID																		
DATE	.	unknown	:LOG	DATE																			
SRVC	.	YuXH	:SERVICE	COMPANY																			
GDAT	.	unknown	:GeoDetic	Datum																			
#-----------------------------------------------------------------------------																							
~PARAMETER	INFORMATION																						
#MNEM.UNIT	VALUE	DESCRIPTION																					
#----	-----	--------------------	------------------------																				
RUN	.NONE	1	:RUN	NUMBER																			
LATI	.DEG	0	:LATITUDE																				
LONG	.DEG	0	:X-COORDINATE	OF	WELL	HEAD																	
XWELL.M	0	:Y-COORDINATE	OF	WELL	HEAD																		
YWELL.M	0	:LONGITUDE																					
PDAT	.M	0	:Permanent	Datum																			
EPD	.M	0	:Elevation	of	Permanent	Datum	above	Mean	Sea	Level													
LMF	.M	0	:Logging	Measured	From	(Name	of	Logging	Elevation	Reference)													
APD	.M	0	:Elevation	of	Depth	Reference	(LMF)	above	Permanent	Datum													
#-----------------------------------------------------------------------------																							
~CURVE	INFORMATION																						
#MNEM.UNIT	API	CODE	DESCRIPTION																				
#----	-----	--------	-----------------------																				
DEPT	.m	:	DEPTH	{F10.3}																			
DTC	.us/ft	:	DTC	{F10.3}																			
vpvs	.API	:	vpvs	{F10.3}																			
DTs	.us/ft	:	DTs	{F10.3}																			
DTst	.us/ft	:	DTst	{F10.3}																			
BMOD	.MPa	:	BMOD	{F10.3}																			
BULK	.MPa	:	BULK	{F10.3}																			
DMMI	.g/cm3	:	DMMI	{F10.3}																			
DMMX	.g/cm3	:	DMMX	{F10.3}																			
FI	.%	:	FI	{F10.3}																			
FRACP	.MPa	:	FRACP	{F10.3}																			
POIS	.%	:	POIS	{F10.3}																			
pp	.MPa	:	pp	{F10.3}																			
RL	.MPa	:	RL	{F10.3}																			
RMSC	.g/cm3	:	RMSC	{F10.3}																			
SH1	.MPa	:	SH1	{F10.3}																			
SH2	.MPa	:	SH2	{F10.3}																			
SHV	.MPa	:	SHV	{F10.3}																			
SMOD	.MPa	:	SMOD	{F10.3}																			
SPOIS	.%	:	SPOIS	{F10.3}																			
ST	.MPa	:	ST	{F10.3}																			
SYMOD	.MPa	:	SYMOD	{F10.3}																			
YMOD	.MPa	:	YMOD	{F10.3}																			
#-----------------------------------------------------------------------------																							
#																							
#	INDEX	DTC	vpvs	DTs	DTst	BMOD	BULK	DMMI	DMMX	FI	FRACP	POIS	pp	RL	RMSC	SH1	SH2	SHV	SMOD	SPOIS	ST	SYMOD	YMOD
#																							
~ASCII	DATA	SECTION																					
# ...
	3451.66351	48.5382	1.97884	96.44161	207.82178	70846.53906	106976.25	1.37535	3.25802	0.44697	113.59142	0.33039	43.39324	52781.68359	1.98692	102.07771	76.10048	89.75111	27097.28125	0.3089	27.28264	41269.36328	72099.64844
	3451.81591	48.52698	1.99029	96.57301	206.40637	70632.51563	106480.375	1.37369	3.25428	0.44848	113.47009	0.33111	43.40279	52708.58203	1.99009	102.1687	76.19125	89.7592	26885.89844	0.30962	27.00268	41033.09766	71576.01563
	3451.96831	48.50939	1.99163	96.60773	205.02625	70589.08594	106337.0313	1.37317	3.25379	0.44916	113.45837	0.33143	43.40681	52715.10938	1.99153	102.21034	76.23251	89.76322	26810.96289	0.30994	26.91745	40950.97266	71393.99219
	3452.12071	48.48372	1.99271	96.60924	204.05847	70802.28906	106599.3906	1.37387	3.25903	0.44967	113.64064	0.33168	43.40535	52903.73047	1.99261	102.23883	76.26045	89.76322	26847.83203	0.31019	27.04086	41001.21484	71505.35156
	3452.27311	48.44505	1.99415	96.60233	203.38214	71055.73438	106902.5313	1.37477	3.26546	0.45035	113.86337	0.332	43.40939	53132.33594	1.99406	102.28062	76.30186	89.76726	26885.09961	0.31051	27.18199	41053.91797	71622.16406
	3452.42551	48.4208	1.99417	96.60529	202.92917	71053.67188	106842.1563	1.37462	3.2659	0.45085	113.88303	0.33224	43.41891	53159.42578	1.99512	102.31625	76.33728	89.77533	26841.36719	0.31075	27.14184	41007.125	71518.45313
	3452.57791	48.4377	1.99405	96.59364	202.6028	70796.30469	106505.5859	1.37363	3.25951	0.45041	113.67199	0.33203	43.42294	52941.66406	1.99418	102.29619	76.31684	89.77935	26781.95898	0.31054	26.97941	40930.61328	71348.88281
	3452.73031	48.48356	1.99122	96.55283	202.40297	70601.16406	106359.0938	1.37332	3.25389	0.44912	113.48689	0.33142	43.42696	52722.19531	1.99145	102.22954	76.24981	89.78337	26818.45313	0.30993	26.92925	40959.57813	71413.07031
	3452.88271	48.51362	1.98836	96.47005	202.33916	70615.125	106539.8203	1.37399	3.25294	0.44773	113.45977	0.33075	43.42551	52652.78125	1.98851	102.15311	76.17283	89.78337	26943.51953	0.30926	27.04661	41093.60547	71710.11719
	3453.03511	48.50194	1.98831	96.36598	202.47504	70687.36719	106739.9531	1.37474	3.25397	0.44694	113.49963	0.33037	43.42954	52661.07422	1.98685	102.1137	76.13303	89.78741	27039.43945	0.30888	27.1629	41199.51172	71944.83594
	3453.18751	48.45061	1.98739	96.28466	202.9326	70703.10156	106740.3594	1.37482	3.25459	0.44714	113.52565	0.33047	43.43906	52684.47266	1.98727	102.13304	76.15217	89.79548	27027.94336	0.30898	27.15938	41188.08594	71919.51563
	3453.33991	48.38903	1.98968	96.27058	204.02699	70942.32813	106978.8984	1.37547	3.26102	0.4482	113.74828	0.33098	43.4431	52924.04297	1.98951	102.19579	76.21453	89.79951	27027.43164	0.30949	27.26121	41199.91016	71945.72656
	3453.49231	48.37822	1.99135	96.33381	205.60423	71182.8125	107245.7422	1.37614	3.26717	0.44903	113.96136	0.33137	43.44165	53151.34766	1.99126	102.24171	76.25991	89.79951	27047.19727	0.30988	27.3818	41233.35547	72019.84375
	3453.64471	48.42942	1.99154	96.44886	207.15497	71099.6875	107105.7734	1.3757	3.26529	0.44916	113.9026	0.33143	43.44569	53096.64063	1.99153	102.25298	76.27079	89.80356	27004.56641	0.30994	27.30797	41183.62891	71909.63281
	3453.79711	48.51958	1.99148	96.56812	208.14641	70678.10156	106538.0938	1.37407	3.25503	0.44857	113.56059	0.33115	43.45522	52748.10547	1.99029	102.22878	76.24638	89.81164	26894.99609	0.30966	27.03018	41045.14063	71602.71094
	3453.94951	48.59375	1.98884	96.65033	208.78453	70283.48438	106016.1016	1.3725	3.24527	0.44793	113.2352	0.33085	43.45924	52417.17578	1.98895	102.19785	76.21507	89.81566	26799.45898	0.30936	26.77763	40922.98047	71331.96094
	3454.10191	48.64709	1.98772	96.70181	209.1454	69891.09375	105484.7891	1.37079	3.23555	0.4474	112.91115	0.33059	43.4578	52094.24609	1.98782	102.16876	76.18543	89.81567	26695.27148	0.30911	26.51951	40791.69531	71040.99219
	3454.25431	48.69016	1.98652	96.72964	209.36755	69798.17188	105408.6953	1.37063	3.23288	0.44684	112.82579	0.33032	43.46181	51992.91016	1.98664	102.14187	76.15816	89.81968	26707.89453	0.30884	26.49137	40800.31641	71060.09375
	3454.40671	48.74131	1.98516	96.76159	209.57253	69831.24219	105536.2109	1.37121	3.23316	0.44615	112.84013	0.32999	43.47132	51978.75391	1.98521	102.1125	76.12858	89.82774	26778.72656	0.30851	26.56767	40877.43359	71231.00781
	3454.55911	48.79608	1.98511	96.82373	209.83809	69598.23438	105235.8516	1.37032	3.22732	0.4457	112.64751	0.32977	43.47536	51779.41797	1.98425	102.09161	76.1073	89.83177	26728.2168	0.30829	26.42472	40811.52344	71084.92969
	3454.71151	48.90536	1.98072	96.88589	210.07433	68858.35938	104287.7734	1.36745	3.20882	0.44418	112.02606	0.32904	43.47937	51143.65625	1.98109	102.01234	76.02766	89.83578	26572.06055	0.30757	25.9768	40606.63281	70630.82813
	3454.86391	49.02501	1.97613	96.89944	210.19083	68279.94531	103658.0469	1.36557	3.19331	0.44198	111.50568	0.32798	43.47792	50590.89063	1.97653	101.8916	75.90638	89.83578	26533.58008	0.30651	25.70075	40535.07422	70472.23438
	3455.01631	49.10745	1.972	96.84554	210.18253	67753.89063	103098.9141	1.36397	3.17913	0.43984	111.0305	0.32694	43.48193	50081.37891	1.97212	101.77776	75.79216	89.83979	26508.76758	0.30548	25.45898	40480.50781	70351.30469
	3455.16871	49.10133	1.97196	96.79698	210.22044	67610.26563	102920.8672	1.36353	3.17557	0.43948	110.91479	0.32677	43.49138	49954.96094	1.97137	101.76591	75.78011	89.84779	26482.95313	0.3053	25.37691	40445.39453	70273.48438
	3455.32111	49.10118	1.96931	96.70647	210.26706	67440.90625	102763.2266	1.36311	3.17077	0.43858	110.75721	0.32633	43.49536	49779.74219	1.96953	101.72067	75.73448	89.85178	26491.74219	0.30487	25.31343	40445.50391	70273.71875
	3455.47351	49.08892	1.96655	96.55241	210.34514	67325.88281	102732.8594	1.36305	3.1667	0.43728	110.62432	0.3257	43.49392	49622.39063	1.96689	101.64952	75.66278	89.85178	26555.23438	0.30424	25.31877	40506.38281	70408.64844
	3455.62591	49.07295	1.96265	96.33016	210.42424	67192.13281	102743.0625	1.36327	3.1617	0.43537	110.45979	0.32477	43.49789	49416.66406	1.963	101.5482	75.5611	89.85576	26663.19727	0.30331	25.35334	40613.07813	70645.11719
	3455.77831	49.04438	1.95908	96.08478	210.47545	67217.72656	102997.1328	1.36439	3.1605	0.43346	110.42407	0.32383	43.50732	49328.01563	1.95914	101.45096	75.46364	89.86373	26834.56055	0.30238	25.508	40795.30469	71048.99219
	3455.93071	49.01089	1.95889	95.89789	210.52504	67548.70313	103643.9297	1.36668	3.167	0.43222	110.64912	0.32323	43.51132	49501.08984	1.95666	101.38728	75.39958	89.86774	27071.41992	0.30178	25.84807	41063.51953	71643.4375
	3456.08311	48.98129	1.95626	95.81684	210.60272	67916.82813	104235.6406	1.3686	3.17528	0.43199	110.93438	0.32311	43.50987	49757.42578	1.95619	101.37455	75.38631	89.86774	27239.10742	0.30167	26.14764	41260.91406	72080.92969
	3456.23551	48.95914	1.95735	95.81998	210.68188	68066.78906	104411.6719	1.36915	3.17922	0.43246	111.07287	0.32335	43.51389	49894.34375	1.95714	101.40481	75.41618	89.87176	27258.66602	0.3019	26.22878	41289.97266	72145.32813
	3456.38791	48.91996	1.95957	95.86132	210.73448	68081.60938	104297.3438	1.36865	3.18065	0.43366	111.12618	0.32393	43.51793	49973.74219	1.95955	101.47513	75.48613	89.87579	27161.80078	0.30249	26.15288	41188.70703	71920.89844
	3456.54031	48.87839	1.95986	95.94044	210.70595	68289.3125	104429.7266	1.36902	3.18712	0.43529	111.35012	0.32473	43.5274	50219.10547	1.96284	101.57288	75.58366	89.88382	27105.3125	0.30328	26.19384	41140.67578	71814.4375
	3456.69271	48.88056	1.96461	96.03367	210.6861	68290.375	104329.1172	1.3686	3.18794	0.43619	111.38281	0.32517	43.53142	50271.00781	1.96466	101.6265	75.63691	89.88783	27029.05469	0.30371	26.12919	41060.19531	71636.07031
	3456.84511	48.95083	1.96383	96.1411	210.7309	68013.22656	103940.6641	1.36728	3.18103	0.43588	111.15363	0.32502	43.52998	50049.50781	1.96403	101.60977	75.61963	89.88784	26945.58008	0.30356	25.93983	40956.71875	71406.73438
	3456.99751	49.05828	1.96186	96.24702	210.83679	67402.92188	103127.0313	1.36472	3.16579	0.43482	110.64234	0.3245	43.53398	49540.86719	1.96189	101.55565	75.56513	89.89185	26793.08398	0.30305	25.55161	40761.88672	70974.92188
	3457.14991	49.12162	1.96158	96.35621	210.90367	67149.1875	102755.8359	1.36362	3.15986	0.43467	110.44617	0.32443	43.54342	49345.85938	1.96158	101.55538	75.56465	89.89983	26704.99023	0.30297	25.37031	40654.80859	70737.60938
