~VERSION	INFORMATION																						
VERS.	2	:Log	ASCII	Standard	-	VERSION	2																
WRAP.	NO	:One	Line	per	depth	step																	
PROD.	YuXH	:LAS	Producer																				
PROG.	YuXH2LAS	1	:LAS	Program	name	and	version																
CREA.	8/19/2013	15:01	:LAS	Creation	date	{YYYY/MM/DD	hh:mm}																
SOURCE.		:Data	File	Name																			
#--------------------------------------------------																							
~WELL	INFORMATION																						
#MENM.UNIT	DATA	DESCRIPTION																					
#----	------	--------------	-----------------------------																				
STRT	.m	2980.8999	:START	DEPTH																			
STOP	.m	4420.1099	:STOP	DEPTH																			
STEP	.m	0.1524	:STEP																				
NULL	.	-9999.9	:NULL	VALUE																			
COMP	.	unknown	:COMPANY																				
WELL	.	unknown	:WELL																				
FLD	.	unknown	:FIELD																				
LOC	.	unknown	:LOCATION																				
CNTY	.	unknown	:COUNTY																				
STAT	.	unknown	:STATE																				
CTRY	.	unknown	:COUNTRY																				
API	.	unknown	:API	NUMBER																			
UWI	.	unknown	:UNIQUE	WELL	ID																		
DATE	.	unknown	:LOG	DATE																			
SRVC	.	YuXH	:SERVICE	COMPANY																			
GDAT	.	unknown	:GeoDetic	Datum																			
#-----------------------------------------------------------------------------																							
~PARAMETER	INFORMATION																						
#MNEM.UNIT	VALUE	DESCRIPTION																					
#----	-----	--------------------	------------------------																				
RUN	.NONE	1	:RUN	NUMBER																			
LATI	.DEG	0	:LATITUDE																				
LONG	.DEG	0	:X-COORDINATE	OF	WELL	HEAD																	
XWELL.M	0	:Y-COORDINATE	OF	WELL	HEAD																		
YWELL.M	0	:LONGITUDE																					
PDAT	.M	0	:Permanent	Datum																			
EPD	.M	0	:Elevation	of	Permanent	Datum	above	Mean	Sea	Level													
LMF	.M	0	:Logging	Measured	From	(Name	of	Logging	Elevation	Reference)													
APD	.M	0	:Elevation	of	Depth	Reference	(LMF)	above	Permanent	Datum													
#-----------------------------------------------------------------------------																							
~CURVE	INFORMATION																						
#MNEM.UNIT	API	CODE	DESCRIPTION																				
#----	-----	--------	-----------------------																				
DEPT	.m	:	DEPTH	{F10.3}																			
DTC	.us/ft	:	DTC	{F10.3}																			
vpvs	.API	:	vpvs	{F10.3}																			
DTs	.us/ft	:	DTs	{F10.3}																			
DTst	.us/ft	:	DTst	{F10.3}																			
BMOD	.MPa	:	BMOD	{F10.3}																			
BULK	.MPa	:	BULK	{F10.3}																			
DMMI	.g/cm3	:	DMMI	{F10.3}																			
DMMX	.g/cm3	:	DMMX	{F10.3}																			
FI	.%	:	FI	{F10.3}																			
FRACP	.MPa	:	FRACP	{F10.3}																			
POIS	.%	:	POIS	{F10.3}																			
pp	.MPa	:	pp	{F10.3}																			
RL	.MPa	:	RL	{F10.3}																			
RMSC	.g/cm3	:	RMSC	{F10.3}																			
SH1	.MPa	:	SH1	{F10.3}																			
SH2	.MPa	:	SH2	{F10.3}																			
SHV	.MPa	:	SHV	{F10.3}																			
SMOD	.MPa	:	SMOD	{F10.3}																			
SPOIS	.%	:	SPOIS	{F10.3}																			
ST	.MPa	:	ST	{F10.3}																			
SYMOD	.MPa	:	SYMOD	{F10.3}																			
YMOD	.MPa	:	YMOD	{F10.3}																			
#-----------------------------------------------------------------------------																							
#																							
#	INDEX	DTC	vpvs	DTs	DTst	BMOD	BULK	DMMI	DMMX	FI	FRACP	POIS	pp	RL	RMSC	SH1	SH2	SHV	SMOD	SPOIS	ST	SYMOD	YMOD
#																							
~ASCII	DATA	SECTION																					
# ...
	3355.95631	50.03223	1.94114	96.97224	209.89609	63957.42188	99148.14063	1.34147	3.09041	0.42287	104.92947	0.31862	40.87864	46362.05859	1.9382	98.13452	72.39537	87.23501	26393.04102	0.2972	23.77737	40143.61328	69604.64063
	3356.10871	50.29671	1.92734	96.83433	210.21358	63113.45703	98570.97656	1.33994	3.06264	0.41616	104.02068	0.31527	40.88265	45384.69531	1.92526	97.77271	72.03318	87.23902	26593.14063	0.29387	23.58146	40301.35547	69954.24219
	3356.26111	50.3091	1.92178	96.67347	210.58159	62948.25391	98524.66406	1.33984	3.05628	0.41423	103.81631	0.3143	40.88116	45160.04688	1.92159	97.66768	71.92758	87.23902	26682.30859	0.2929	23.58121	40383.85938	70137.09375
	3356.41351	50.02077	1.928	96.53958	210.89297	63812.76953	99389.89063	1.34258	3.0819	0.41863	104.66367	0.3165	40.88517	46024.20703	1.92999	97.91178	72.17131	87.24303	26682.84375	0.2951	23.94565	40437.58203	70256.16406
	3356.56591	49.61737	1.94237	96.51552	211.0551	65363.98438	100929.6172	1.3474	3.1275	0.42645	106.16865	0.32039	40.89466	47581.17188	1.9452	98.3462	72.60554	87.25104	26674.2207	0.29896	24.59216	40520.83594	70440.67969
	3356.71831	49.22275	1.95892	96.56519	211.10762	67034.11719	102567.8047	1.35224	3.17577	0.43478	107.76116	0.32448	40.89866	49267.26953	1.9618	98.80443	73.06339	87.25504	26650.26953	0.30303	25.27593	40590.66016	70595.4375
	3356.87071	48.96043	1.97192	96.63458	211.21445	68202.70313	103693.4688	1.35536	3.20904	0.44063	108.86053	0.32732	40.89717	50457.32031	1.97373	99.12372	73.38212	87.25504	26618.07617	0.30586	25.74067	40620.53516	70661.64844
	3357.02311	48.92285	1.97651	96.701	211.40755	68430.97656	103883.4688	1.35586	3.21573	0.44202	109.08559	0.328	40.90117	50704.73047	1.9766	99.20387	73.46189	87.25903	26589.36719	0.30653	25.81208	40602.32813	70621.28906
	3357.17551	48.9731	1.97587	96.75213	211.60445	68277.29688	103703.7031	1.35543	3.21173	0.44154	108.95897	0.32777	40.91067	50564.08984	1.97562	99.186	73.44382	87.26704	26569.80469	0.3063	25.7307	40573.35938	70557.08594
	3357.32791	49.13158	1.97097	96.77458	211.72581	67708.60938	103161.9297	1.35393	3.19547	0.43866	108.42904	0.32637	40.91468	49981.94141	1.9697	99.03314	73.29059	87.27105	26589.99805	0.30491	25.50893	40564.05859	70536.47656
	3357.48031	49.35933	1.96239	96.78084	211.75168	66778.80469	102235.75	1.35126	3.16904	0.43425	107.5642	0.32422	40.91868	49050.33594	1.96074	98.79667	73.05374	87.27505	26592.70703	0.30277	25.12041	40515.70703	70429.32031
	3357.63271	49.61837	1.95239	96.78445	211.75264	65717.50781	101172.1953	1.34803	3.13848	0.42917	106.56361	0.32173	40.91719	47990.16406	1.95058	98.51989	72.7764	87.27505	26591.01758	0.30029	24.6731	40453.90625	70292.34375
	3357.78511	49.79739	1.94436	96.76829	211.85265	64970.55859	100432.2031	1.34582	3.11676	0.42545	105.85364	0.3199	40.9212	47239.73828	1.94324	98.32133	72.57745	87.27907	26596.23047	0.29847	24.36359	40416.09766	70208.54688
	3357.93751	49.87192	1.94052	96.75957	212.16608	64654.11719	100116.5938	1.34496	3.10763	0.42388	105.55804	0.31912	40.93071	46922.875	1.94016	98.24367	72.4996	87.28709	26596.85938	0.29769	24.23119	40398.14844	70168.77344
	3358.08991	49.88408	1.93972	96.76171	212.43321	64557.73047	99991.65625	1.34456	3.10508	0.42366	105.47889	0.31901	40.93472	46840.76563	1.93973	98.23582	72.49137	87.29109	26575.44922	0.29759	24.17358	40370.04297	70106.47656
	3358.24231	49.93414	1.93833	96.76925	212.39819	64271.33203	99649.375	1.34337	3.09713	0.42274	105.22212	0.31855	40.93323	46582.3125	1.93794	98.18585	72.44084	87.29109	26533.53125	0.29713	24.02006	40309.21094	69971.65625
	3358.39471	50.05194	1.93412	96.76024	212.03313	63587.63672	98856.5625	1.34081	3.07819	0.4203	104.60346	0.31733	40.93723	45953.17578	1.9332	98.05664	72.31126	87.29509	26451.69336	0.29592	23.66938	40182.79297	69691.47656
	3358.54711	50.18774	1.92891	96.76408	211.78951	63011.97656	98253.375	1.33899	3.06159	0.41762	104.06184	0.316	40.94668	45391.27734	1.92804	97.91855	72.17297	87.30305	26431.04688	0.29459	23.413	40126.33984	69566.35938
	3358.69951	50.26047	1.92574	96.77193	211.5712	62631.87109	97810.4375	1.33754	3.05099	0.41624	103.71758	0.31531	40.95066	45042.58594	1.92541	97.84755	72.1016	87.30703	26383.92383	0.2939	23.21809	40053.95703	69405.92969
	3358.85191	50.24987	1.92575	96.77926	211.34273	62644.30078	97798.375	1.3374	3.05149	0.41653	103.73865	0.31545	40.94916	45067.26172	1.92596	97.86355	72.11703	87.30703	26365.55859	0.29405	23.20909	40035.60547	69365.25781
	3359.00431	50.21534	1.92717	96.7866	211.10445	62975.38281	98231.17969	1.33889	3.06015	0.4173	104.02854	0.31584	40.95314	45347.48438	1.92743	97.90962	72.16273	87.311	26441.8457	0.29443	23.40612	40135.35156	69586.32813
	3359.15671	50.20699	1.92767	96.7813	210.84122	63232.36719	98619.71094	1.34027	3.0663	0.41741	104.2357	0.31589	40.95713	45538.69531	1.92765	97.9199	72.17264	87.31499	26540.50781	0.29449	23.59033	40253.85156	69848.96094
	3359.30911	50.27685	1.92484	96.7369	210.5408	63160.57031	98712.42969	1.34083	3.06249	0.41554	104.11501	0.31496	40.96663	45384.63672	1.92408	97.82624	72.07878	87.32301	26663.90039	0.29356	23.65628	40377.88281	70123.85938
	3359.46151	50.33167	1.92124	96.67323	210.25114	62775.67969	98304.71094	1.33953	3.05126	0.41377	103.74988	0.31407	40.97065	45011.16406	1.92072	97.73386	71.98603	87.32702	26646.77344	0.29267	23.48113	40336.17969	70031.42969
	3359.61391	50.33981	1.91949	96.6185	210.01961	62413.48828	97818.19531	1.33778	3.04167	0.41304	103.43907	0.3137	40.96915	44711.13672	1.91933	97.69379	71.94539	87.32702	26553.5293	0.2923	23.25738	40216.69922	69766.625
	3359.76631	50.29545	1.92064	96.61917	209.77518	62560.83594	97950.46094	1.33821	3.04622	0.41394	103.59339	0.31415	40.97314	44866.02344	1.92103	97.74712	71.99834	87.33101	26542.2168	0.29276	23.31041	40214.16016	69760.99219
	3359.91871	50.2385	1.92297	96.62649	209.41917	62956.62891	98435.71094	1.33995	3.05712	0.41516	103.95702	0.31477	40.98261	45217.08984	1.92336	97.82195	72.07298	87.33899	26609.31055	0.29337	23.52818	40308.49219	69970.0625
	3360.07111	50.15656	1.92582	96.61842	209.01817	63349.22656	98877.19531	1.34141	3.06822	0.41673	104.32726	0.31555	40.98662	45585.24609	1.92634	97.91143	72.16209	87.34299	26645.97656	0.29415	23.72167	40370.85156	70108.27344
	3360.22351	50.07082	1.9291	96.61927	208.72897	63960.71875	99639.78125	1.34389	3.08456	0.41846	104.87006	0.31642	40.98514	46121.18359	1.92965	98.00607	72.25616	87.343	26759.30078	0.29501	24.06833	40526.29297	70452.77344
	3360.37591	50.00964	1.9326	96.67854	208.51062	64362.80078	100061.5859	1.34524	3.09617	0.4203	105.25707	0.31734	40.98915	46513.40625	1.9332	98.11066	72.36037	87.34702	26774.08984	0.29592	24.24993	40566.05469	70540.89844
	3360.52831	50.04347	1.93343	96.74939	208.32802	64393.60156	100103.2109	1.34549	3.09706	0.42035	105.29127	0.31736	40.9987	46538.79688	1.93331	98.12189	72.3714	87.35508	26782.20508	0.29595	24.26941	40576.38281	70563.79688
	3360.68071	50.19658	1.92881	96.7636	208.2515	63732.90625	99397.64844	1.34327	3.07803	0.41743	104.66927	0.31591	41.00273	45900.53516	1.92769	97.96684	72.21597	87.35911	26748.55664	0.2945	23.96368	40501.19922	70397.15625
	3360.83311	50.39926	1.91999	96.68337	208.12941	62844.85547	98551.1875	1.34057	3.05104	0.41252	103.78519	0.31344	41.00124	44991.6875	1.91835	97.69888	71.94746	87.35911	26779.75195	0.29204	23.61295	40478.58984	70347.04688
	3360.98551	50.47825	1.91278	96.50648	207.89276	62507.25391	98402.96094	1.34032	3.03883	0.40905	103.38763	0.31169	41.00527	44559.39844	1.91184	97.51395	71.76214	87.36314	26921.7793	0.2903	23.57919	40604.38672	70625.85938
	3361.13791	50.3558	1.9123	96.31457	207.76511	63144.34766	99355.95313	1.34375	3.05457	0.4095	103.91086	0.31191	41.00932	45038.54688	1.91268	97.5426	71.79041	87.36718	27158.70117	0.29053	24.03329	40890.38281	71259.71875
	3361.29031	50.10877	1.91833	96.19059	207.7688	64070.04688	100396.0547	1.34727	3.08118	0.4132	104.79192	0.31378	41.01891	45907.03906	1.91964	97.75262	72.00022	87.37529	27244.50977	0.29239	24.49748	41037.875	71586.60156
	3361.44271	49.89297	1.92619	96.16529	207.74347	64939.94141	101295.5234	1.35009	3.10664	0.4173	105.63547	0.31584	41.02297	46762.15625	1.92743	97.98041	72.22764	87.37934	27266.68164	0.29443	24.88921	41114.77734	71757.03906
