~VERSION	INFORMATION																						
VERS.	2	:Log	ASCII	Standard	-	VERSION	2																
WRAP.	NO	:One	Line	per	depth	step																	
PROD.	YuXH	:LAS	Producer																				
PROG.	YuXH2LAS	1	:LAS	Program	name	and	version																
CREA.	8/19/2013	15:01	:LAS	Creation	date	{YYYY/MM/DD	hh:mm}																
SOURCE.		:Data	File	Name																			
#--------------------------------------------------																							
~WELL	INFORMATION																						
#MENM.UNIT	DATA	DESCRIPTION																					
#----	------	--------------	-----------------------------																				
STRT	.m	2980.8999	:START	DEPTH																			
STOP	.m	4420.1099	:STOP	DEPTH																			
STEP	.m	0.1524	:STEP																				
NULL	.	-9999.9	:NULL	VALUE																			
COMP	.	unknown	:COMPANY																				
WELL	.	unknown	:WELL																				
FLD	.	unknown	:FIELD																				
LOC	.	unknown	:LOCATION																				
CNTY	.	unknown	:COUNTY																				
STAT	.	unknown	:STATE																				
CTRY	.	unknown	:COUNTRY																				
API	.	unknown	:API	NUMBER																			
UWI	.	unknown	:UNIQUE	WELL	ID																		
DATE	.	unknown	:LOG	DATE																			
SRVC	.	YuXH	:SERVICE	COMPANY																			
GDAT	.	unknown	:GeoDetic	Datum																			
#-----------------------------------------------------------------------------																							
~PARAMETER	INFORMATION																						
#MNEM.UNIT	VALUE	DESCRIPTION																					
#----	-----	--------------------	------------------------																				
RUN	.NONE	1	:RUN	NUMBER																			
LATI	.DEG	0	:LATITUDE																				
LONG	.DEG	0	:X-COORDINATE	OF	WELL	HEAD																	
XWELL.M	0	:Y-COORDINATE	OF	WELL	HEAD																		
YWELL.M	0	:LONGITUDE																					
PDAT	.M	0	:Permanent	Datum																			
EPD	.M	0	:Elevation	of	Permanent	Datum	above	Mean	Sea	Level													
LMF	.M	0	:Logging	Measured	From	(Name	of	Logging	Elevation	Reference)													
APD	.M	0	:Elevation	of	Depth	Reference	(LMF)	above	Permanent	Datum													
#-----------------------------------------------------------------------------																							
~CURVE	INFORMATION																						
#MNEM.UNIT	API	CODE	DESCRIPTION																				
#----	-----	--------	-----------------------																				
DEPT	.m	:	DEPTH	{F10.3}																			
DTC	.us/ft	:	DTC	{F10.3}																			
vpvs	.API	:	vpvs	{F10.3}																			
DTs	.us/ft	:	DTs	{F10.3}																			
DTst	.us/ft	:	DTst	{F10.3}																			
BMOD	.MPa	:	BMOD	{F10.3}																			
BULK	.MPa	:	BULK	{F10.3}																			
DMMI	.g/cm3	:	DMMI	{F10.3}																			
DMMX	.g/cm3	:	DMMX	{F10.3}																			
FI	.%	:	FI	{F10.3}																			
FRACP	.MPa	:	FRACP	{F10.3}																			
POIS	.%	:	POIS	{F10.3}																			
pp	.MPa	:	pp	{F10.3}																			
RL	.MPa	:	RL	{F10.3}																			
RMSC	.g/cm3	:	RMSC	{F10.3}																			
SH1	.MPa	:	SH1	{F10.3}																			
SH2	.MPa	:	SH2	{F10.3}																			
SHV	.MPa	:	SHV	{F10.3}																			
SMOD	.MPa	:	SMOD	{F10.3}																			
SPOIS	.%	:	SPOIS	{F10.3}																			
ST	.MPa	:	ST	{F10.3}																			
SYMOD	.MPa	:	SYMOD	{F10.3}																			
YMOD	.MPa	:	YMOD	{F10.3}																			
#-----------------------------------------------------------------------------																							
#																							
#	INDEX	DTC	vpvs	DTs	DTst	BMOD	BULK	DMMI	DMMX	FI	FRACP	POIS	pp	RL	RMSC	SH1	SH2	SHV	SMOD	SPOIS	ST	SYMOD	YMOD
#																							
~ASCII	DATA	SECTION																					
# ...
	3643.38271	73.63032	1.8497	136.2545	214.25139	28193.17578	46169.81641	1.2004	2.35017	0.37453	87.4851	0.29377	48.45045	19204.85547	1.85052	103.30137	76.84673	94.80831	13482.47949	0.27248	5.25332	24478.7207	34886.34766
	3643.53511	73.85427	1.84937	136.27631	214.24042	27965.64258	45966.32813	1.19851	2.33913	0.37137	87.0946	0.29208	48.45448	18965.29883	1.84521	103.12847	76.67345	94.81234	13500.51465	0.2708	5.2111	24479.24805	34887.51953
	3643.68751	73.88002	1.81469	135.11136	214.01056	27744.41406	46138.09375	1.19489	2.31012	0.36144	86.06247	0.28673	48.46394	18547.57227	1.82879	102.58009	76.12482	94.82043	13795.26172	0.26549	5.26089	24756.34961	35501.66016
	3643.83991	73.76778	1.81226	133.05621	213.63664	27336.69141	46319.89063	1.18886	2.26328	0.34573	84.3933	0.27811	48.46799	17845.08984	1.80372	101.7037	75.24806	94.82449	14237.40039	0.25691	5.31386	25158.97461	36394.00391
	3643.99231	73.53294	1.78654	130.53479	213.25214	26845.13477	46533.97656	1.18175	2.20714	0.32703	82.39214	0.26758	48.46662	17000.71484	1.77519	100.6554	74.19924	94.82449	14766.63086	0.24644	5.36769	25629.04102	37435.82031
	3644.14471	73.15054	1.75812	128.07147	212.96815	26542.16602	46975.60156	1.17644	2.15858	0.31029	80.66128	0.2579	48.47067	16325.44922	1.75079	99.72121	73.26466	94.82854	15325.0752	0.23681	5.46576	26133.96094	38554.87891
	3644.29711	72.58429	1.74159	126.44054	212.82455	26771.54297	47754.40625	1.17671	2.14505	0.30406	80.18139	0.25424	48.48014	16280.1123	1.74198	99.3805	72.92371	94.83663	15737.14746	0.23317	5.64475	26549.70898	39476.30859
	3644.44951	71.89245	1.76743	126.05148	212.80981	27591.49023	48724.10938	1.18312	2.17696	0.31206	81.32429	0.25894	48.48419	17025.18164	1.75333	99.83307	73.3759	94.84068	15849.46484	0.23784	5.88112	26744.07422	39907.07813
	3644.60191	71.33056	1.76958	126.56094	212.85127	28518.57227	49471.58203	1.19104	2.22674	0.32642	83.10597	0.26724	48.48281	18042.06641	1.77429	100.63801	74.18031	94.84068	15714.75684	0.24609	6.06677	26708.66797	39828.60547
	3644.75431	71.22114	1.78351	126.97661	212.87859	28760.05078	49541.70313	1.19349	2.24488	0.33214	83.75728	0.27049	48.48687	18369.22656	1.78285	100.96272	74.50465	94.84473	15586.23828	0.24933	6.08369	26607.46875	39604.32031
	3644.90671	71.5453	1.77897	126.67438	212.82491	28057.72656	48823.85156	1.18808	2.21427	0.3239	82.6673	0.26579	48.49631	17674.66211	1.77055	100.50874	74.05042	94.8528	15574.59473	0.24466	5.90875	26528.06836	39428.34375
	3645.05911	71.93311	1.75533	125.61452	212.70311	27165.14844	48271.01563	1.17975	2.1583	0.3071	80.67143	0.25603	48.50033	16612.2168	1.74627	99.5714	73.1127	94.85682	15829.39844	0.23495	5.76955	26679.73242	39764.47656
	3645.21151	72.05084	1.73114	124.37634	212.63487	26654.5957	48238.96094	1.17411	2.11336	0.29269	79.06943	0.24746	48.50436	15862.41504	1.72623	98.76774	72.30866	94.86085	16188.27148	0.22642	5.74994	26961.24023	40388.38672
	3645.36391	71.88435	1.71679	123.37014	212.69826	26569.8418	48544.97656	1.17233	2.09253	0.28531	78.32856	0.24299	48.50298	15582.27246	1.71623	98.35387	71.89427	94.86085	16481.35156	0.22198	5.81452	27224.70508	40972.30859
	3645.51631	71.34695	1.71747	123.00628	212.78841	27153.9707	49243.26563	1.17702	2.11576	0.2911	79.16159	0.2465	48.50702	16109.32129	1.72406	98.6826	72.22263	94.86488	16566.97266	0.22547	5.99008	27373.19922	41301.41797
	3645.66871	70.51245	1.73644	123.25858	212.80949	28372.45898	50337.11328	1.18736	2.17768	0.30835	81.3772	0.25677	48.51646	17390.13281	1.74804	99.65785	73.19764	94.87296	16473.49023	0.23568	6.27483	27420.69531	41406.68359
	3645.82111	69.75002	1.79491	124.04821	212.77567	29689.55469	51325.82422	1.1984	2.24969	0.32923	83.95352	0.26883	48.52048	18871.41992	1.77847	100.83206	74.37147	94.87697	16227.20215	0.24768	6.53005	27318.08203	41179.25781
	3645.97351	69.52261	1.79687	125.12875	212.78851	30395.9082	51658.6875	1.20458	2.29515	0.34324	85.58159	0.27672	48.5191	19764.51758	1.79983	101.61765	75.15654	94.87697	15947.08594	0.25553	6.61086	27110.88867	40720.05469
	3646.12591	69.93378	1.80532	126.18246	212.82404	30221.80273	51184.99219	1.20419	2.3003	0.34611	85.76907	0.27832	48.52312	19740.20703	1.80431	101.78312	75.32162	94.88099	15722.39258	0.25712	6.48851	26874.7207	40196.63281
	3646.27831	70.66562	1.80132	126.93744	212.87466	29463.41016	50211.55469	1.19929	2.27721	0.34097	84.94759	0.27546	48.53256	19089.33789	1.79631	101.50253	75.04079	94.88905	15561.10938	0.25427	6.24674	26648.39063	39695.01563
	3646.43071	71.41331	1.78776	127.20507	212.91032	28575.21484	49287.25391	1.19257	2.23992	0.33108	83.61837	0.26989	48.53661	18219.19336	1.78125	100.95251	74.49039	94.8931	15534.03125	0.24873	6.02149	26539.17773	39452.96484
	3646.58311	71.9625	1.76998	126.98544	212.90814	27772.75781	48570.48438	1.18582	2.1999	0.31985	82.19192	0.26346	48.53523	17373.89453	1.76461	100.32318	73.86054	94.8931	15598.29395	0.24234	5.84687	26522.37695	39415.73047
	3646.73551	72.26249	1.75485	126.38382	212.86598	27179.47461	48181.56641	1.18033	2.1635	0.309	80.89452	0.25715	48.53928	16678.42969	1.74895	99.71864	73.25562	94.89714	15751.56738	0.23606	5.7493	26607.33008	39604.01172
	3646.88791	72.23867	1.73996	125.44762	212.80983	26904.75195	48227.93359	1.17718	2.1367	0.30019	79.9398	0.25194	48.54875	16243.15918	1.73657	99.23325	72.76999	94.90524	15992.38867	0.23088	5.7543	26805.48242	40043.17969
	3647.04031	71.82019	1.73193	124.37057	212.78094	27087.80078	48774.13672	1.17776	2.12981	0.29667	79.69701	0.24985	48.5528	16244.63184	1.73169	99.03997	72.57632	94.90929	16264.75293	0.2288	5.88223	27082.36914	40656.84766
	3647.19271	71.17763	1.73522	123.36321	212.80582	27545.53711	49530.625	1.18083	2.13879	0.29775	80.02144	0.25049	48.55684	16552.99219	1.73317	99.10416	72.64013	94.91333	16488.81641	0.22943	6.06714	27344.60938	41238.05469
	3647.34511	70.67929	1.73539	122.53484	212.87074	27946.125	50227.82031	1.18335	2.14508	0.29811	80.2496	0.2507	48.55547	16805.27734	1.73367	99.1245	72.65994	94.91333	16711.27148	0.22965	6.23949	27598.88867	41801.61328
	3647.49751	70.6058	1.73062	121.85335	212.93123	27896.89453	50506.39453	1.18228	2.12949	0.2924	79.6956	0.24728	48.55951	16592.14258	1.72583	98.80854	72.34361	94.91737	16957.12695	0.22624	6.30285	27824.02148	42300.57813
	3647.64991	70.79379	1.71772	121.35364	212.94469	27467.23633	50283.92188	1.17846	2.10111	0.28378	78.68436	0.24206	48.56899	16058.89355	1.71418	98.3336	71.86842	94.92548	17112.51367	0.22105	6.23643	27918.29297	42509.51563
	3647.80231	70.78156	1.70901	121.04578	212.90773	27351.45508	50270.15234	1.17733	2.09154	0.28074	78.34537	0.2402	48.57304	15892.1084	1.71013	98.16713	71.70157	94.92953	17189.02148	0.2192	6.22856	27975.1875	42635.61328
	3647.95471	70.4098	1.71292	120.91788	212.8454	27808.62305	50753.89453	1.18098	2.11195	0.28614	79.0785	0.24349	48.57166	16335.98633	1.71734	98.46988	72.00381	94.92953	17208.95508	0.22248	6.35686	28048.66797	42798.46875
	3648.10711	69.90522	1.72517	121.0061	212.77574	28459.2832	51276.41406	1.18647	2.14719	0.29617	80.34173	0.24955	48.57572	17050.7168	1.731	99.0366	72.57014	94.93359	17112.84766	0.2285	6.50074	28034.27148	42766.55859
	3648.25951	69.51151	1.74045	121.49625	212.71881	29191.51367	51798.57813	1.19271	2.18874	0.30823	81.83051	0.25669	48.58515	17887.98047	1.74786	99.72054	73.25384	94.94164	16955.29883	0.23561	6.6444	27965.9668	42615.17578
	3648.41191	69.24152	1.75988	122.64857	212.71654	30021.16016	52206.98438	1.19991	2.24191	0.32442	83.73521	0.26609	48.58918	18928.24805	1.77132	100.63261	74.16553	94.94567	16639.36719	0.24495	6.75605	27748.77734	42133.81641
	3648.56431	69.0047	1.8137	124.16024	212.85623	30943.90234	52611.57813	1.20782	2.30169	0.3429	85.87629	0.27653	48.5878	20110.06445	1.7993	101.66898	75.20137	94.94567	16250.75586	0.25534	6.85719	27457.97656	41489.30859
	3648.71671	69.006	1.81439	124.58677	213.17247	31114.44922	52650.92578	1.20939	2.31406	0.34684	86.32207	0.27873	48.59184	20346.21094	1.80545	101.89416	75.42618	94.94971	16152.35742	0.25752	6.865	27376.56836	41308.88672
	3648.86911	69.45344	1.79016	122.5958	213.59456	29731.30664	51971.65625	1.19768	2.22718	0.32023	83.21887	0.26368	48.60128	18611.13281	1.76515	100.40991	73.94169	94.95777	16680.26172	0.24255	6.6945	27759.2207	42156.96094
