~VERSION	INFORMATION																						
VERS.	2	:Log	ASCII	Standard	-	VERSION	2																
WRAP.	NO	:One	Line	per	depth	step																	
PROD.	YuXH	:LAS	Producer																				
PROG.	YuXH2LAS	1	:LAS	Program	name	and	version																
CREA.	8/19/2013	15:01	:LAS	Creation	date	{YYYY/MM/DD	hh:mm}																
SOURCE.		:Data	File	Name																			
#--------------------------------------------------																							
~WELL	INFORMATION																						
#MENM.UNIT	DATA	DESCRIPTION																					
#----	------	--------------	-----------------------------																				
STRT	.m	2980.8999	:START	DEPTH																			
STOP	.m	4420.1099	:STOP	DEPTH																			
STEP	.m	0.1524	:STEP																				
NULL	.	-9999.9	:NULL	VALUE																			
COMP	.	unknown	:COMPANY																				
WELL	.	unknown	:WELL																				
FLD	.	unknown	:FIELD																				
LOC	.	unknown	:LOCATION																				
CNTY	.	unknown	:COUNTY																				
STAT	.	unknown	:STATE																				
CTRY	.	unknown	:COUNTRY																				
API	.	unknown	:API	NUMBER																			
UWI	.	unknown	:UNIQUE	WELL	ID																		
DATE	.	unknown	:LOG	DATE																			
SRVC	.	YuXH	:SERVICE	COMPANY																			
GDAT	.	unknown	:GeoDetic	Datum																			
#-----------------------------------------------------------------------------																							
~PARAMETER	INFORMATION																						
#MNEM.UNIT	VALUE	DESCRIPTION																					
#----	-----	--------------------	------------------------																				
RUN	.NONE	1	:RUN	NUMBER																			
LATI	.DEG	0	:LATITUDE																				
LONG	.DEG	0	:X-COORDINATE	OF	WELL	HEAD																	
XWELL.M	0	:Y-COORDINATE	OF	WELL	HEAD																		
YWELL.M	0	:LONGITUDE																					
PDAT	.M	0	:Permanent	Datum																			
EPD	.M	0	:Elevation	of	Permanent	Datum	above	Mean	Sea	Level													
LMF	.M	0	:Logging	Measured	From	(Name	of	Logging	Elevation	Reference)													
APD	.M	0	:Elevation	of	Depth	Reference	(LMF)	above	Permanent	Datum													
#-----------------------------------------------------------------------------																							
~CURVE	INFORMATION																						
#MNEM.UNIT	API	CODE	DESCRIPTION																				
#----	-----	--------	-----------------------																				
DEPT	.m	:	DEPTH	{F10.3}																			
DTC	.us/ft	:	DTC	{F10.3}																			
vpvs	.API	:	vpvs	{F10.3}																			
DTs	.us/ft	:	DTs	{F10.3}																			
DTst	.us/ft	:	DTst	{F10.3}																			
BMOD	.MPa	:	BMOD	{F10.3}																			
BULK	.MPa	:	BULK	{F10.3}																			
DMMI	.g/cm3	:	DMMI	{F10.3}																			
DMMX	.g/cm3	:	DMMX	{F10.3}																			
FI	.%	:	FI	{F10.3}																			
FRACP	.MPa	:	FRACP	{F10.3}																			
POIS	.%	:	POIS	{F10.3}																			
pp	.MPa	:	pp	{F10.3}																			
RL	.MPa	:	RL	{F10.3}																			
RMSC	.g/cm3	:	RMSC	{F10.3}																			
SH1	.MPa	:	SH1	{F10.3}																			
SH2	.MPa	:	SH2	{F10.3}																			
SHV	.MPa	:	SHV	{F10.3}																			
SMOD	.MPa	:	SMOD	{F10.3}																			
SPOIS	.%	:	SPOIS	{F10.3}																			
ST	.MPa	:	ST	{F10.3}																			
SYMOD	.MPa	:	SYMOD	{F10.3}																			
YMOD	.MPa	:	YMOD	{F10.3}																			
#-----------------------------------------------------------------------------																							
#																							
#	INDEX	DTC	vpvs	DTs	DTst	BMOD	BULK	DMMI	DMMX	FI	FRACP	POIS	pp	RL	RMSC	SH1	SH2	SHV	SMOD	SPOIS	ST	SYMOD	YMOD
#																							
~ASCII	DATA	SECTION																					
# ...
	4323.39152	76.17944	1.71462	131.15376	215.41725	22856.83203	41545.37109	1.23002	2.10724	0.28932	93.52032	0.24542	66.382	13512.56055	1.72164	116.69376	88.54693	112.73872	14016.40625	0.2244	4.26221	24490.63281	34912.75
	4323.54392	76.28904	1.72655	132.04044	215.52885	23045.5918	41530.42578	1.23266	2.12583	0.29602	94.31121	0.24945	66.38589	13803.17578	1.73079	117.09705	88.94985	112.74261	13863.625	0.22841	4.26432	24369.33594	34643.91797
	4323.69632	76.70771	1.72448	132.55894	215.52989	22921.94141	41410.97266	1.23155	2.11974	0.29406	94.05652	0.24828	66.38983	13677.42676	1.7281	116.98442	88.83685	112.74654	13866.77344	0.22724	4.23842	24358.2168	34619.27344
	4323.84872	77.01376	1.71515	132.35387	215.40315	22553.13477	41113.5	1.22787	2.09859	0.28705	93.16368	0.24405	66.39375	13272.95313	1.71857	116.57027	88.42233	112.75046	13920.27344	0.22303	4.17212	24365.3125	34635
	4324.00112	76.78394	1.7148	131.52719	215.19548	22530.68359	41296.03516	1.22668	2.08779	0.28286	92.70932	0.2415	66.39259	13148.00684	1.71295	116.32029	88.17191	112.75046	14074.01563	0.22049	4.20535	24505.48242	34945.66016
	4324.15352	75.91509	1.71278	130.37785	214.95457	23127.32813	42207.07422	1.23074	2.10208	0.28619	93.31813	0.24353	66.39651	13587.45508	1.71742	116.52301	88.37428	112.75437	14309.80859	0.22251	4.39622	24795.87305	35589.25781
	4324.30592	74.86372	1.72088	129.12675	214.74434	23860.40625	43239.19531	1.23597	2.1231	0.29166	94.21237	0.24684	66.40043	14171.01172	1.72482	116.85329	88.70417	112.75829	14534.0918	0.2258	4.61892	25090.98242	36243.3125
	4324.45832	74.27862	1.72289	128.07512	214.64565	24211.00195	43898.16797	1.23779	2.12568	0.29124	94.325	0.24658	66.40433	14367.41797	1.72425	116.83221	88.68273	112.76219	14765.375	0.22555	4.7604	25347.83984	36812.58984
	4324.61072	74.3883	1.72076	127.2397	214.6685	23899.36133	43910.4375	1.234	2.09728	0.281	93.12459	0.24036	66.41329	13893.82227	1.71048	116.22929	88.07951	112.77	15008.30859	0.21936	4.75259	25536.81055	37231.40625
	4324.76312	75.08124	1.70159	126.65446	214.75037	22941.97852	43169.05469	1.22479	2.04235	0.26287	90.79994	0.22909	66.41721	12828.44043	1.6869	115.15173	87.00158	112.77392	15170.30762	0.20815	4.56955	25563.84766	37291.33203
	4324.91552	75.67361	1.67706	126.36252	214.81586	22218.25977	42578.375	1.2177	2.00087	0.24925	89.04497	0.22041	66.42113	12038.20313	1.66984	114.3437	86.19318	112.77784	15270.08594	0.19952	4.42306	25554.95703	37271.62109
	4325.06792	75.64173	1.67482	126.28925	214.81331	22254.66016	42660.53125	1.2179	2.00073	0.24904	89.04229	0.22027	66.42506	12051.72461	1.66957	114.33485	86.18395	112.78177	15304.40137	0.19939	4.43976	25590.83789	37351.14844
	4325.22032	74.69429	1.69934	126.26543	214.83655	23396.95313	43863.79688	1.22803	2.05396	0.26563	91.30169	0.23083	66.4239	13163.53125	1.69043	115.32456	87.17323	112.78177	15350.13184	0.20988	4.72208	25787.38672	37786.76172
	4325.37272	73.78301	1.70142	126.19843	214.97157	24508.20508	45032.62109	1.23744	2.10354	0.28094	93.40645	0.24032	66.42784	14245.99805	1.7104	116.24161	88.08991	112.78571	15393.31055	0.21932	4.99854	25967.22852	38185.34375
	4325.52512	73.31647	1.71602	125.99802	215.12115	25066.50391	45696.35156	1.24175	2.12446	0.28703	94.29642	0.24404	66.43179	14751.58105	1.71855	116.60894	88.45687	112.78966	15472.38379	0.22302	5.15406	26107.60352	38496.46094
	4325.67752	73.1534	1.71937	125.60241	215.11612	25175.08203	45963.80859	1.24216	2.12278	0.28586	94.22883	0.24333	66.43574	14780.71875	1.71697	116.54305	88.3906	112.7936	15591.5459	0.22231	5.21326	26231.36133	38770.74609
	4325.82992	73.0095	1.71317	125.13323	214.91879	25201.60352	46147.62109	1.24191	2.11755	0.28359	94.01044	0.24194	66.4397	14728.5957	1.71393	116.41169	88.25887	112.79757	15709.5127	0.22094	5.25239	26344.11719	39020.64844
	4325.98232	72.77217	1.71368	124.85949	214.63271	25368.17578	46370.5625	1.24318	2.1228	0.28496	94.23624	0.24278	66.44877	14866.98242	1.71576	116.50108	88.34795	112.80548	15751.78906	0.22176	5.30489	26403.32813	39151.87891
	4326.13472	72.5593	1.71791	124.94024	214.43669	25551.33008	46431.40234	1.24503	2.13589	0.28952	94.79439	0.24554	66.4527	15111.29492	1.72191	116.77695	88.62345	112.80941	15660.05371	0.22452	5.3239	26339.53711	39010.5
	4326.28712	72.50902	1.72453	125.1766	214.39549	25605.90234	46335.45703	1.24595	2.14444	0.29279	95.16013	0.24751	66.45662	15241.12598	1.72636	116.97609	88.82222	112.81333	15547.16406	0.22648	5.3052	26240.33594	38790.64063
	4326.43952	72.52356	1.72729	125.31499	214.43982	25641.38672	46331.87891	1.24637	2.1476	0.29393	95.29765	0.2482	66.46054	15296.13867	1.72792	117.04816	88.89391	112.81725	15517.87012	0.22716	5.30546	26216.9668	38738.84375
	4326.59192	72.66537	1.72213	125.26834	214.47377	25555.94141	46351.86719	1.2453	2.13944	0.29099	94.95518	0.24643	66.4594	15157.97852	1.72391	116.87288	88.7182	112.81726	15596.94531	0.2254	5.30719	26281.13281	38881.05469
	4326.74432	72.71626	1.72199	125.17976	214.43634	25483.66016	46327.04297	1.24459	2.13432	0.2892	94.74142	0.24535	66.46333	15061.96875	1.72148	116.77033	88.61528	112.82119	15632.53809	0.22433	5.29966	26305.94531	38936.05078
	4326.89672	72.50644	1.72273	125.32286	214.45897	25748.80078	46503.54297	1.247	2.14961	0.29431	95.39279	0.24843	66.46727	15371.42969	1.72844	117.07869	88.92326	112.82513	15566.05566	0.22739	5.34519	26274.41992	38866.17578
	4327.04912	72.25863	1.73305	125.65768	214.61238	26146.35938	46765.08203	1.25057	2.17241	0.30194	96.36323	0.25298	66.47121	15836.99707	1.739	117.53773	89.38194	112.82907	15464.04199	0.23191	5.41181	26223.00781	38752.23438
	4327.20152	72.229	1.73904	125.81597	214.84293	26182.20898	46706.46094	1.25124	2.17792	0.30401	96.60013	0.25421	66.48021	15920.08398	1.7419	117.66931	89.51321	112.83692	15393.1875	0.23313	5.39969	26159.94922	38612.47656
	4327.35392	72.46233	1.72398	125.2961	214.97211	25710.93164	46405.61328	1.24699	2.15052	0.2948	95.44142	0.24873	66.48413	15363.5918	1.72912	117.12424	88.96777	112.84084	15521.01074	0.22768	5.32316	26227.85156	38762.96875
	4327.50632	72.78294	1.72082	124.44759	214.9857	25067.69336	46085.66797	1.24082	2.10879	0.28053	93.67533	0.24007	66.48806	14558.7041	1.70985	116.27641	88.11956	112.84477	15763.48242	0.21907	5.23451	26377.9082	39095.54297
	4327.65872	72.96042	1.70308	123.96716	214.9072	24692.64453	45884.24219	1.23723	2.08475	0.27235	92.65895	0.23502	66.49199	14096.84766	1.6991	115.79265	87.63544	112.8487	15893.69629	0.21405	5.17764	26451.26172	39258.11328
	4327.81112	72.7093	1.70028	124.40717	214.72717	25141.03125	46167.30859	1.24142	2.11177	0.28141	93.80807	0.24061	66.49592	14627.8916	1.71102	116.33717	88.17959	112.85263	15769.70898	0.21961	5.2542	26392.5957	39128.09375
	4327.96352	72.41556	1.72411	124.69856	214.40137	25612.82422	46539.59375	1.24548	2.13669	0.28958	94.86848	0.24558	66.49477	15149.43945	1.72199	116.82435	88.66633	112.85263	15695.07813	0.22455	5.3488	26379.41211	39098.87109
	4328.11592	72.21289	1.7249	124.74863	214.00734	25937.71094	46885.23438	1.24802	2.15008	0.29363	95.43981	0.24802	66.4987	15463.94922	1.72751	117.07027	88.91188	112.85656	15710.64355	0.22698	5.43266	26431.55859	39214.44531
	4328.26832	72.17036	1.72858	124.69712	213.63863	26016.52148	47014.32031	1.2485	2.15149	0.29385	95.50291	0.24816	66.50262	15517.62305	1.72782	117.08751	88.92875	112.86049	15748.34766	0.22712	5.46283	26475.91992	39312.76172
	4328.42072	72.23038	1.72705	124.6539	213.36147	25927.98633	46943.69531	1.24777	2.14693	0.29237	95.31269	0.24726	66.50658	15420.13281	1.72578	117.00278	88.84365	112.86444	15761.78125	0.22623	5.44498	26478.32813	39318.10547
	4328.57312	72.29752	1.72518	124.70652	213.22676	25814.06055	46775.89453	1.2471	2.14422	0.29173	95.20143	0.24687	66.51559	15333.14453	1.72491	116.97243	88.813	112.87231	15721.37598	0.22584	5.40548	26427.37305	39205.16797
	4328.72552	72.33038	1.72688	124.8655	213.28543	25681.91602	46474.63281	1.24658	2.1453	0.29276	95.25043	0.2475	66.51952	15285.55957	1.72632	117.03825	88.87843	112.87623	15594.53613	0.22646	5.33709	26293.43555	38908.32422
	4328.87792	72.41129	1.72719	125.13821	213.47113	25602.26758	46250.93359	1.2464	2.1477	0.2941	95.35561	0.24831	66.52341	15277.93457	1.72816	117.12226	88.96208	112.88013	15486.5	0.22726	5.2871	26183.08594	38663.75391
