~VERSION	INFORMATION																						
VERS.	2	:Log	ASCII	Standard	-	VERSION	2																
WRAP.	NO	:One	Line	per	depth	step																	
PROD.	YuXH	:LAS	Producer																				
PROG.	YuXH2LAS	1	:LAS	Program	name	and	version																
CREA.	8/19/2013	15:01	:LAS	Creation	date	{YYYY/MM/DD	hh:mm}																
SOURCE.		:Data	File	Name																			
#--------------------------------------------------																							
~WELL	INFORMATION																						
#MENM.UNIT	DATA	DESCRIPTION																					
#----	------	--------------	-----------------------------																				
STRT	.m	2980.8999	:START	DEPTH																			
STOP	.m	4420.1099	:STOP	DEPTH																			
STEP	.m	0.1524	:STEP																				
NULL	.	-9999.9	:NULL	VALUE																			
COMP	.	unknown	:COMPANY																				
WELL	.	unknown	:WELL																				
FLD	.	unknown	:FIELD																				
LOC	.	unknown	:LOCATION																				
CNTY	.	unknown	:COUNTY																				
STAT	.	unknown	:STATE																				
CTRY	.	unknown	:COUNTRY																				
API	.	unknown	:API	NUMBER																			
UWI	.	unknown	:UNIQUE	WELL	ID																		
DATE	.	unknown	:LOG	DATE																			
SRVC	.	YuXH	:SERVICE	COMPANY																			
GDAT	.	unknown	:GeoDetic	Datum																			
#-----------------------------------------------------------------------------																							
~PARAMETER	INFORMATION																						
#MNEM.UNIT	VALUE	DESCRIPTION																					
#----	-----	--------------------	------------------------																				
RUN	.NONE	1	:RUN	NUMBER																			
LATI	.DEG	0	:LATITUDE																				
LONG	.DEG	0	:X-COORDINATE	OF	WELL	HEAD																	
XWELL.M	0	:Y-COORDINATE	OF	WELL	HEAD																		
YWELL.M	0	:LONGITUDE																					
PDAT	.M	0	:Permanent	Datum																			
EPD	.M	0	:Elevation	of	Permanent	Datum	above	Mean	Sea	Level													
LMF	.M	0	:Logging	Measured	From	(Name	of	Logging	Elevation	Reference)													
APD	.M	0	:Elevation	of	Depth	Reference	(LMF)	above	Permanent	Datum													
#-----------------------------------------------------------------------------																							
~CURVE	INFORMATION																						
#MNEM.UNIT	API	CODE	DESCRIPTION																				
#----	-----	--------	-----------------------																				
DEPT	.m	:	DEPTH	{F10.3}																			
DTC	.us/ft	:	DTC	{F10.3}																			
vpvs	.API	:	vpvs	{F10.3}																			
DTs	.us/ft	:	DTs	{F10.3}																			
DTst	.us/ft	:	DTst	{F10.3}																			
BMOD	.MPa	:	BMOD	{F10.3}																			
BULK	.MPa	:	BULK	{F10.3}																			
DMMI	.g/cm3	:	DMMI	{F10.3}																			
DMMX	.g/cm3	:	DMMX	{F10.3}																			
FI	.%	:	FI	{F10.3}																			
FRACP	.MPa	:	FRACP	{F10.3}																			
POIS	.%	:	POIS	{F10.3}																			
pp	.MPa	:	pp	{F10.3}																			
RL	.MPa	:	RL	{F10.3}																			
RMSC	.g/cm3	:	RMSC	{F10.3}																			
SH1	.MPa	:	SH1	{F10.3}																			
SH2	.MPa	:	SH2	{F10.3}																			
SHV	.MPa	:	SHV	{F10.3}																			
SMOD	.MPa	:	SMOD	{F10.3}																			
SPOIS	.%	:	SPOIS	{F10.3}																			
ST	.MPa	:	ST	{F10.3}																			
SYMOD	.MPa	:	SYMOD	{F10.3}																			
YMOD	.MPa	:	YMOD	{F10.3}																			
#-----------------------------------------------------------------------------																							
#																							
#	INDEX	DTC	vpvs	DTs	DTst	BMOD	BULK	DMMI	DMMX	FI	FRACP	POIS	pp	RL	RMSC	SH1	SH2	SHV	SMOD	SPOIS	ST	SYMOD	YMOD
#																							
~ASCII	DATA	SECTION																					
# ...
	3840.74071	73.34527	1.78217	130.57918	213.57997	27208.75391	46965.39063	1.2102	2.23214	0.33047	87.78163	0.26954	53.69316	17330.43555	1.78034	106.18581	79.23689	100.04972	14817.47754	0.24839	5.46757	25713.41797	37622.82422
	3840.89311	73.43508	1.79011	131.39166	213.31097	27279.45313	46751.05469	1.2119	2.24817	0.33634	88.38837	0.27286	53.69723	17543.65234	1.78922	106.52528	79.57596	100.05379	14603.70117	0.25169	5.41683	25512.27344	37177.02344
	3841.04551	73.44183	1.79111	131.63057	213.07756	27288.70703	46652.25	1.21235	2.25341	0.33836	88.58894	0.274	53.69591	17606.93555	1.79231	106.64072	79.69092	100.05378	14522.65723	0.25282	5.3934	25434.06641	37003.69141
	3841.19791	73.37735	1.78923	131.32909	212.86163	27226.86523	46640.29297	1.21167	2.24841	0.33671	88.40443	0.27307	53.69997	17520.15039	1.78978	106.5503	79.60011	100.05784	14560.07129	0.25189	5.3911	25464.84766	37071.91406
	3841.35031	73.24866	1.78109	130.54774	212.65707	27186.12695	46853.12109	1.21044	2.23521	0.33175	87.91108	0.27027	53.70936	17352.63086	1.78225	106.27519	79.32474	100.06592	14750.24414	0.24911	5.44134	25646.02734	37473.46484
	3841.50271	73.05127	1.77205	129.53873	212.47453	27207.26563	47237.17188	1.20926	2.21992	0.32573	87.33868	0.26684	53.71342	17192.3125	1.77326	105.93575	78.98491	100.06998	15022.42969	0.2457	5.5311	25911.57813	38062.00781
	3841.65511	72.81334	1.77083	128.40549	212.33957	27157.27148	47539.20313	1.20764	2.20219	0.31909	86.67484	0.26302	53.71748	16966.30469	1.76349	105.56069	78.60947	100.07404	15286.4502	0.2419	5.60103	26160.73438	38614.21875
	3841.80751	72.60094	1.76213	127.37599	212.2764	26983.40625	47603.19531	1.20538	2.18391	0.31286	85.99013	0.2594	53.71617	16673.51172	1.75447	105.20486	78.25314	100.07404	15464.8418	0.2383	5.61399	26313.55078	38952.90625
	3841.95991	72.45814	1.74929	126.78232	212.30406	26956.60352	47753.70313	1.20461	2.17506	0.30954	85.66014	0.25747	53.72021	16558.05469	1.74973	105.01987	78.06777	100.07807	15597.82422	0.23638	5.64794	26437.42578	39227.44922
	3842.11231	72.37737	1.7499	126.6413	212.43877	27098.64844	48005.15625	1.20553	2.17693	0.30955	85.73393	0.25747	53.72959	16645.39258	1.74974	105.02817	78.0758	100.08615	15679.88184	0.23638	5.70758	26530.56445	39433.87109
	3842.26471	72.35178	1.75177	126.72395	212.65097	27189.95703	48092.33203	1.20629	2.18124	0.31078	85.89957	0.25819	53.73365	16738.76953	1.7515	105.10281	78.15005	100.09021	15676.78223	0.2371	5.72897	26537.27734	39448.75391
	3842.41711	72.38457	1.75201	126.80045	212.8618	27170.20117	48046.28906	1.20616	2.18137	0.31097	85.9079	0.2583	53.73235	16732.1582	1.75176	105.11342	78.16018	100.09021	15657.06445	0.2372	5.7181	26516.41406	39402.51563
	3842.56951	72.41277	1.749	126.67992	212.98628	27077.56641	47981.4375	1.20534	2.17601	0.30932	85.70943	0.25733	53.73639	16625.62891	1.74941	105.02359	78.06996	100.09425	15677.9043	0.23624	5.70181	26526.44336	39424.74219
	3842.72191	72.31583	1.74721	126.36702	213.01355	27014.81055	47954.25781	1.20482	2.17176	0.30793	85.55305	0.25652	53.74578	16545.08594	1.74743	104.95206	77.99817	100.10234	15704.58496	0.23543	5.69457	26545.10938	39466.11328
	3842.87431	72.01424	1.74969	125.97292	212.95326	27242.14844	48278.88281	1.20638	2.17792	0.30922	85.78823	0.25728	53.74982	16723.7832	1.74928	105.03036	78.07609	100.10638	15777.5498	0.23619	5.77267	26638.70313	39673.54297
	3843.02671	71.56823	1.75003	125.60226	212.86249	27667.65039	48787.6875	1.20947	2.19335	0.31323	86.37266	0.25962	53.74851	17107.63281	1.755	105.25896	78.30419	100.10638	15840.02539	0.23852	5.89701	26743.03516	39904.77344
	3843.17911	71.12119	1.75593	125.36024	212.83188	28228.41797	49450.48438	1.21357	2.21379	0.3185	87.14603	0.26268	53.75253	17617.38672	1.76263	105.56416	78.60901	100.1104	15916.54785	0.24156	6.06029	26873.99023	40195.01563
	3843.33151	70.74885	1.76835	125.06726	212.90175	28716.46875	50086.99219	1.21699	2.22893	0.32201	87.71983	0.2647	53.76189	18031.20703	1.76776	105.77274	78.81731	100.11845	16027.89355	0.24358	6.21815	27030.14648	40541.10547
	3843.48391	70.35746	1.76392	124.15785	213.00696	28968.46484	50658.74219	1.21806	2.2268	0.3199	87.64283	0.26349	53.76593	18123.32813	1.76467	105.65637	78.70057	100.12249	16267.70605	0.24237	6.36045	27285.99219	41108.14063
	3843.63631	69.84517	1.74686	122.19007	213.09827	29002.99414	51392.03516	1.21672	2.20066	0.30934	86.66201	0.25735	53.76997	17808.47461	1.74944	105.05745	78.10126	100.12653	16791.7793	0.23626	6.54122	27790.44141	42226.15234
	3843.78871	69.41006	1.74496	120.41869	213.19139	29074.47266	52197.57422	1.21579	2.17555	0.29898	85.71944	0.25122	53.76866	17512.92188	1.73489	104.46604	77.50937	100.12653	17342.32617	0.23017	6.73936	28319.29297	43398.25781
	3843.94111	69.33273	1.74239	120.68943	213.28476	29346.63281	52406.98828	1.21794	2.18968	0.30317	86.25508	0.25371	53.77271	17816.45313	1.74073	104.70931	77.75226	100.13057	17295.26758	0.23264	6.79747	28304.97852	43366.53125
	3844.09351	69.43288	1.79035	123.80663	213.3459	30348.0918	52266.12109	1.22766	2.27562	0.33232	89.49618	0.27059	53.78212	19389.07617	1.78311	106.38206	79.42473	100.13869	16438.52148	0.24943	6.77117	27586.06641	41773.19531
	3844.24591	69.27477	1.84403	127.21912	213.35948	31723.49414	52466.07422	1.24033	2.37685	0.3661	93.31322	0.28925	53.78618	21352.20313	1.83644	108.31599	81.35828	100.14274	15556.93555	0.26799	6.79686	26837.28906	40113.67188
	3844.39831	68.81412	1.84907	129.47682	213.36089	33236.78906	53317.53516	1.25219	2.45998	0.39243	96.44912	0.30317	53.78487	23196.41797	1.88154	109.81944	82.86124	100.14273	15060.55762	0.28183	6.96826	26448.86719	39252.80859
	3844.55071	68.47577	1.88766	129.91373	213.41133	34036.59375	54062.97266	1.25734	2.49083	0.40113	97.61537	0.30765	53.78894	24023.40625	1.89722	110.32082	83.36224	100.1468	15019.78418	0.28629	7.14112	26461.71875	39281.29297
	3844.70311	68.73431	1.8866	129.80528	213.51935	33752.72266	53905.44922	1.25528	2.47582	0.39632	97.05341	0.30518	53.79842	23676.35742	1.88851	110.05431	83.09544	100.15498	15114.54688	0.28383	7.11277	26539.81836	39454.38672
	3844.85551	69.61742	1.86926	130.30515	213.60229	32531.73438	52520.08203	1.24814	2.43798	0.38686	95.63163	0.30027	53.80252	22537.56055	1.87173	109.51849	82.55923	100.15908	14991.26074	0.27895	6.77397	26328.20117	38985.37109
	3845.00791	70.73006	1.84782	130.91158	213.63011	30991.98438	50741.32031	1.23869	2.38944	0.37473	93.80632	0.29387	53.8012	21117.31445	1.85086	108.82579	81.86604	100.15907	14812.00391	0.27259	6.34482	26032.36328	38329.70313
	3845.16031	71.65028	1.84604	131.35014	213.7061	29810.54297	49416.30859	1.23096	2.3489	0.36414	92.28228	0.2882	53.8053	20007.66211	1.83321	108.22511	81.26497	100.16316	14704.32324	0.26694	6.032	25831.29688	37884.08203
	3845.31271	72.2578	1.82008	131.6218	213.93843	29030.94922	48533.71484	1.2257	2.32161	0.35698	91.25751	0.2843	53.80938	19279.56641	1.82156	107.82005	80.85953	100.16724	14627.07324	0.26307	5.82574	25690.12891	37571.21094
	3845.46511	72.63651	1.81236	131.72131	214.24316	28571.55859	48055.71094	1.22244	2.30341	0.3519	90.57528	0.28152	53.81884	18829.48242	1.81343	107.53809	80.5773	100.1754	14613.11523	0.2603	5.71566	25637.23633	37453.98047
	3845.61751	72.83216	1.80749	131.6924	214.5041	28480.86133	48094.57031	1.22127	2.29383	0.34857	90.218	0.27968	53.82294	18674.00586	1.80816	107.35204	80.39086	100.1795	14710.28223	0.25847	5.72718	25725.2207	37648.98047
	3845.76991	72.92357	1.80494	131.6476	214.6969	28402.93164	48068.71094	1.22041	2.28813	0.34673	90.00644	0.27867	53.82164	18570.04297	1.80528	107.24742	80.28575	100.1795	14749.33496	0.25746	5.72213	25756.80664	37718.98438
	3845.92231	73.02123	1.80477	131.31436	214.7966	28110.8418	47831.90234	1.21799	2.27323	0.34225	89.44869	0.27618	53.82576	18250.31055	1.7983	106.99577	80.03371	100.18362	14790.7959	0.25498	5.66814	25771.39258	37751.3125
	3846.07471	73.17362	1.77346	130.03329	214.79326	27431.75586	47477.85156	1.21157	2.22942	0.32828	87.80071	0.26829	53.83525	17408.70898	1.77705	106.2057	79.24335	100.19182	15034.56934	0.24715	5.58765	25945.19922	38136.52344
	3846.22711	73.36065	1.72766	127.24548	214.69151	26102.1543	46877.19922	1.19823	2.13704	0.29872	84.32229	0.25107	53.83932	15714.63281	1.73452	104.52119	77.55846	100.19588	15581.28418	0.23001	5.43531	26328.66602	38986.40625
