~VERSION	INFORMATION																						
VERS.	2	:Log	ASCII	Standard	-	VERSION	2																
WRAP.	NO	:One	Line	per	depth	step																	
PROD.	YuXH	:LAS	Producer																				
PROG.	YuXH2LAS	1	:LAS	Program	name	and	version																
CREA.	8/19/2013	15:01	:LAS	Creation	date	{YYYY/MM/DD	hh:mm}																
SOURCE.		:Data	File	Name																			
#--------------------------------------------------																							
~WELL	INFORMATION																						
#MENM.UNIT	DATA	DESCRIPTION																					
#----	------	--------------	-----------------------------																				
STRT	.m	2980.8999	:START	DEPTH																			
STOP	.m	4420.1099	:STOP	DEPTH																			
STEP	.m	0.1524	:STEP																				
NULL	.	-9999.9	:NULL	VALUE																			
COMP	.	unknown	:COMPANY																				
WELL	.	unknown	:WELL																				
FLD	.	unknown	:FIELD																				
LOC	.	unknown	:LOCATION																				
CNTY	.	unknown	:COUNTY																				
STAT	.	unknown	:STATE																				
CTRY	.	unknown	:COUNTRY																				
API	.	unknown	:API	NUMBER																			
UWI	.	unknown	:UNIQUE	WELL	ID																		
DATE	.	unknown	:LOG	DATE																			
SRVC	.	YuXH	:SERVICE	COMPANY																			
GDAT	.	unknown	:GeoDetic	Datum																			
#-----------------------------------------------------------------------------																							
~PARAMETER	INFORMATION																						
#MNEM.UNIT	VALUE	DESCRIPTION																					
#----	-----	--------------------	------------------------																				
RUN	.NONE	1	:RUN	NUMBER																			
LATI	.DEG	0	:LATITUDE																				
LONG	.DEG	0	:X-COORDINATE	OF	WELL	HEAD																	
XWELL.M	0	:Y-COORDINATE	OF	WELL	HEAD																		
YWELL.M	0	:LONGITUDE																					
PDAT	.M	0	:Permanent	Datum																			
EPD	.M	0	:Elevation	of	Permanent	Datum	above	Mean	Sea	Level													
LMF	.M	0	:Logging	Measured	From	(Name	of	Logging	Elevation	Reference)													
APD	.M	0	:Elevation	of	Depth	Reference	(LMF)	above	Permanent	Datum													
#-----------------------------------------------------------------------------																							
~CURVE	INFORMATION																						
#MNEM.UNIT	API	CODE	DESCRIPTION																				
#----	-----	--------	-----------------------																				
DEPT	.m	:	DEPTH	{F10.3}																			
DTC	.us/ft	:	DTC	{F10.3}																			
vpvs	.API	:	vpvs	{F10.3}																			
DTs	.us/ft	:	DTs	{F10.3}																			
DTst	.us/ft	:	DTst	{F10.3}																			
BMOD	.MPa	:	BMOD	{F10.3}																			
BULK	.MPa	:	BULK	{F10.3}																			
DMMI	.g/cm3	:	DMMI	{F10.3}																			
DMMX	.g/cm3	:	DMMX	{F10.3}																			
FI	.%	:	FI	{F10.3}																			
FRACP	.MPa	:	FRACP	{F10.3}																			
POIS	.%	:	POIS	{F10.3}																			
pp	.MPa	:	pp	{F10.3}																			
RL	.MPa	:	RL	{F10.3}																			
RMSC	.g/cm3	:	RMSC	{F10.3}																			
SH1	.MPa	:	SH1	{F10.3}																			
SH2	.MPa	:	SH2	{F10.3}																			
SHV	.MPa	:	SHV	{F10.3}																			
SMOD	.MPa	:	SMOD	{F10.3}																			
SPOIS	.%	:	SPOIS	{F10.3}																			
ST	.MPa	:	ST	{F10.3}																			
SYMOD	.MPa	:	SYMOD	{F10.3}																			
YMOD	.MPa	:	YMOD	{F10.3}																			
#-----------------------------------------------------------------------------																							
#																							
#	INDEX	DTC	vpvs	DTs	DTst	BMOD	BULK	DMMI	DMMX	FI	FRACP	POIS	pp	RL	RMSC	SH1	SH2	SHV	SMOD	SPOIS	ST	SYMOD	YMOD
#																							
~ASCII	DATA	SECTION																					
# ...
	3158.5983	49.26213	1.94438	95.71964	202.79201	66480.69531	102776.5703	1.33106	3.19246	0.42537	101.91756	0.31985	35.68917	48332.76563	1.94307	92.87274	67.62277	82.04704	27221.90039	0.29843	25.5155	41160.24609	71857.8125
	3158.7507	49.30257	1.94613	96.0328	203.00105	66567.08594	102636.6875	1.33037	3.19719	0.42778	102.06895	0.32105	35.69878	48532.28906	1.94783	93.01009	67.75996	82.05506	27052.19727	0.29961	25.41235	40987.26172	71474.42969
	3158.9031	49.25528	1.94934	96.24729	202.71614	67129.61719	103148.4844	1.33187	3.21462	0.43092	102.6136	0.32259	35.70281	49120.18359	1.95405	93.18194	67.93143	82.05909	27014.15234	0.30115	25.62094	40979.50391	71457.23438
	3159.0555	49.10099	1.9565	96.38641	202.51251	67936.14063	103879.375	1.33395	3.23943	0.43538	103.38663	0.32477	35.70684	49964.53125	1.96302	93.42496	68.17408	82.06313	26957.41992	0.30332	25.91706	40964.95703	71424.99219
	3159.2079	48.90847	1.97582	96.49789	201.72536	68785.98438	104618.8203	1.33587	3.2654	0.44029	104.19557	0.32716	35.70526	50869.56641	1.97303	93.68767	68.43618	82.06313	26874.62891	0.30569	26.20778	40923.83594	71333.85938
	3159.3603	48.75896	1.98276	96.60096	199.99823	69429.70313	105147.375	1.33723	3.28519	0.44423	104.81335	0.32907	35.70929	51570.87109	1.98119	93.90301	68.65114	82.06715	26788.25195	0.30759	26.40592	40866.50391	71206.78906
	3159.5127	48.68455	1.98477	96.66825	198.2897	69627.35156	105206.5391	1.33729	3.2921	0.44634	105.03251	0.33008	35.71891	51837.75391	1.9856	94.02406	68.77203	82.07519	26684.39648	0.3086	26.3986	40766.41406	70984.95313
	3159.6651	48.6837	1.98634	96.71082	196.89645	69689.5625	105251.3438	1.33741	3.29401	0.44678	105.09667	0.33029	35.72292	51908.67578	1.98651	94.05145	68.79903	82.0792	26671.33203	0.30881	26.41338	40755.74609	70961.3125
	3159.8175	48.73564	1.98446	96.72759	195.36945	69790.625	105500.1797	1.33829	3.29569	0.44593	105.15386	0.32989	35.72134	51935.84375	1.98474	94.00648	68.75348	82.07921	26782.16992	0.3084	26.55349	40878.97656	71234.42969
	3159.9699	48.74026	1.98514	96.73323	193.41064	69852.32813	105597.4141	1.33865	3.2972	0.4459	105.20551	0.32987	35.72537	51979.78125	1.98467	94.00883	68.75545	82.08324	26808.81641	0.30839	26.60308	40910.55078	71304.41406
	3160.1223	48.70488	1.98571	96.74837	192.27663	69957.14844	105660.5	1.33887	3.30065	0.44673	105.31765	0.33027	35.73503	52105.46875	1.98642	94.06174	68.80818	82.09131	26777.51563	0.30879	26.61994	40882.69922	71242.6875
	3160.2747	48.69619	1.98703	96.79581	192.41078	69987.27344	105633.9609	1.33872	3.30191	0.44736	105.36156	0.33057	35.73906	52163.92969	1.98775	94.09978	68.84585	82.09534	26735.01563	0.30909	26.5952	40839.00781	71145.85156
	3160.4271	48.7429	1.98773	96.87871	194.05185	69688.48438	105193.9922	1.33715	3.29409	0.44727	105.12461	0.33053	35.73748	51935.73047	1.98755	94.09487	68.84035	82.09534	26629.13086	0.30904	26.37586	40710.75391	70861.59375
	3160.5795	48.79058	1.98775	96.97195	196.47154	69367.25	104710.7656	1.33552	3.28595	0.44725	104.87726	0.33052	35.7415	51695.49219	1.98751	94.09828	68.84337	82.09937	26507.63867	0.30904	26.13435	40564.71094	70537.92188
	3160.7319	48.79811	1.9892	97.04333	197.81596	68967.90625	104046.3516	1.33331	3.27652	0.4478	104.59024	0.33078	35.75108	51428.68359	1.98867	94.13575	68.88068	82.10736	26308.83398	0.3093	25.79413	40332.26953	70022.75781
	3160.8843	48.77295	1.98984	97.08366	197.9447	69018.46094	104024.1484	1.33316	3.27854	0.44868	104.65787	0.33121	35.75506	51515.61719	1.99052	94.18693	68.93148	82.11134	26254.26563	0.30972	25.76765	40276.71875	69899.64063
	3161.0367	48.74051	1.9911	97.10056	197.39127	69273.73438	104320.1641	1.3341	3.28558	0.44947	104.88107	0.33158	35.75905	51750.52344	1.99219	94.23338	68.97756	82.11533	26284.82227	0.31009	25.90042	40322.40234	70000.89063
	3161.1891	48.71346	1.99318	97.08947	196.30344	69331.45313	104360.5313	1.33411	3.28722	0.44989	104.93704	0.33178	35.75747	51816.91016	1.99307	94.25587	68.99945	82.11533	26271.8125	0.31029	25.91303	40311.47266	69976.67188
	3161.3415	48.69344	1.99308	97.05485	194.89603	69417.52344	104484.3516	1.33454	3.28938	0.44994	105.00896	0.33181	35.76145	51884.10938	1.99318	94.26276	69.00597	82.11932	26300.12305	0.31031	25.97364	40346.07813	70053.35938
	3161.4939	48.66887	1.99297	96.99927	193.38872	69764.39063	105013.6641	1.33645	3.2981	0.44987	105.28436	0.33178	35.77102	52139.75781	1.99305	94.2674	69.01045	82.1273	26436.95117	0.31028	26.23862	40509.78906	70416.20313
	3161.6463	48.62548	1.99311	96.94437	191.28474	70166.65625	105584.4297	1.33836	3.30845	0.45018	105.60995	0.33192	35.77504	52457.76563	1.99369	94.28799	69.03066	82.13132	26563.33008	0.31043	26.51898	40665.17969	70760.59375
	3161.7987	48.56264	1.99412	96.90863	189.54697	70633.41406	106187.7969	1.34022	3.32078	0.45105	105.99722	0.33234	35.77346	52856.22656	1.99554	94.33471	69.07677	82.13132	26665.78516	0.31084	26.8067	40798.30078	71055.63281
	3161.9511	48.5008	1.99896	96.91231	190.02747	70917.60938	106474.5625	1.34105	3.32891	0.45228	106.25428	0.33292	35.77749	53139.12891	1.99816	94.40467	69.14637	82.13535	26667.7168	0.31143	26.92835	40814.73047	71092.04688
	3162.1035	48.46276	2.00079	96.94347	192.20366	70986.9375	106460.7109	1.34098	3.33157	0.45331	106.34169	0.33342	35.78713	53250.05469	2.00037	94.4681	69.20963	82.14341	26605.32617	0.31192	26.90154	40751.50391	70951.91406
	3162.2559	48.45804	2.00126	96.97434	194.97511	70982.79688	106410.2734	1.34078	3.33173	0.4537	106.35181	0.3336	35.79116	53269.05859	2.0012	94.49307	69.23422	82.14744	26570.61133	0.3121	26.8686	40714.15625	70869.14063
	3162.4083	48.48133	2.00115	97.00194	197.00259	70824.58594	106193.8906	1.34	3.32743	0.45351	106.2236	0.33351	35.78956	53139.93359	2.00081	94.48357	69.22413	82.14743	26526.97852	0.31201	26.76294	40659.56641	70748.14844
	3162.5607	48.5113	2.00057	97.05212	197.49074	70695.78125	106011.4297	1.33942	3.32407	0.45342	106.12472	0.33347	35.79359	53037.95313	2.00061	94.48275	69.22292	82.15145	26486.73828	0.31197	26.67284	40610.07422	70638.46094
	3162.7131	48.52261	2.00243	97.13445	196.83347	70589.86719	105787.6797	1.33872	3.32197	0.45399	106.06458	0.33374	35.80319	52990.96094	2.00184	94.52152	69.26154	82.15947	26398.35938	0.31224	26.54945	40510.21875	70417.14844
	3162.8655	48.51981	2.00306	97.20875	197.1106	70639.55469	105775.4609	1.33861	3.3238	0.45476	106.1264	0.33411	35.8072	53071.60156	2.00349	94.56669	69.30633	82.16348	26351.92578	0.3126	26.52864	40462.98828	70312.47656
	3163.0179	48.52782	2.00383	97.24625	198.52739	70632.79688	105742.125	1.33849	3.32376	0.45496	106.13028	0.3342	35.81121	53078.13281	2.00393	94.58186	69.32112	82.16749	26331.99414	0.3127	26.50798	40441.30859	70264.42969
	3163.1703	48.56876	2.00372	97.27027	199.10132	70492.95313	105595.4141	1.33799	3.31964	0.45441	106.00771	0.33394	35.80962	52941.72266	2.00273	94.55247	69.29113	82.16749	26326.8457	0.31244	26.44509	40428.84766	70236.80469
	3163.3227	48.66674	1.99849	97.32439	197.63547	70337.20313	105515.6563	1.3379	3.31458	0.45305	105.85606	0.33329	35.81363	52747.97656	1.99981	94.48386	69.22215	82.17149	26383.83789	0.31179	26.43096	40482.04688	70354.71094
	3163.4751	48.85674	1.99076	97.39819	195.93115	69671.45313	104847.1406	1.33611	3.29552	0.45011	105.27007	0.33189	35.82327	52083.61719	1.99355	94.33467	69.07279	82.17955	26381.75781	0.3104	26.15118	40446.15234	70275.15625
	3163.6275	49.09056	1.98789	97.425	195.70547	68916.90625	104187.0938	1.33436	3.27283	0.44586	104.57165	0.32985	35.8273	51281.8125	1.9846	94.11158	68.84931	82.18359	26452.64258	0.30837	25.8978	40482.73047	70356.22656
	3163.7799	49.22918	1.98201	97.35355	196.60081	68399.125	103783.1406	1.33327	3.25657	0.44248	104.07272	0.32822	35.82573	50707.11328	1.97756	93.93085	68.66798	82.18359	26538.01563	0.30675	25.75457	40546.13672	70496.75781
	3163.9323	49.23651	1.97614	97.20531	196.68147	68416.21875	103989.3516	1.33418	3.25549	0.44088	104.0443	0.32745	35.82977	50629.64844	1.97425	93.8494	68.58616	82.18764	26679.85156	0.30598	25.88359	40697.49609	70832.21875
	3164.0847	49.23996	1.96808	97.02599	195.61438	68223.02344	103903.1797	1.33422	3.24901	0.43904	103.84828	0.32656	35.83947	50382.94531	1.97047	93.75906	68.49565	82.19575	26760.11719	0.30509	25.87074	40772.09375	70997.54688
