~VERSION	INFORMATION																						
VERS.	2	:Log	ASCII	Standard	-	VERSION	2																
WRAP.	NO	:One	Line	per	depth	step																	
PROD.	YuXH	:LAS	Producer																				
PROG.	YuXH2LAS	1	:LAS	Program	name	and	version																
CREA.	8/19/2013	15:01	:LAS	Creation	date	{YYYY/MM/DD	hh:mm}																
SOURCE.		:Data	File	Name																			
#--------------------------------------------------																							
~WELL	INFORMATION																						
#MENM.UNIT	DATA	DESCRIPTION																					
#----	------	--------------	-----------------------------																				
STRT	.m	2980.8999	:START	DEPTH																			
STOP	.m	4420.1099	:STOP	DEPTH																			
STEP	.m	0.1524	:STEP																				
NULL	.	-9999.9	:NULL	VALUE																			
COMP	.	unknown	:COMPANY																				
WELL	.	unknown	:WELL																				
FLD	.	unknown	:FIELD																				
LOC	.	unknown	:LOCATION																				
CNTY	.	unknown	:COUNTY																				
STAT	.	unknown	:STATE																				
CTRY	.	unknown	:COUNTRY																				
API	.	unknown	:API	NUMBER																			
UWI	.	unknown	:UNIQUE	WELL	ID																		
DATE	.	unknown	:LOG	DATE																			
SRVC	.	YuXH	:SERVICE	COMPANY																			
GDAT	.	unknown	:GeoDetic	Datum																			
#-----------------------------------------------------------------------------																							
~PARAMETER	INFORMATION																						
#MNEM.UNIT	VALUE	DESCRIPTION																					
#----	-----	--------------------	------------------------																				
RUN	.NONE	1	:RUN	NUMBER																			
LATI	.DEG	0	:LATITUDE																				
LONG	.DEG	0	:X-COORDINATE	OF	WELL	HEAD																	
XWELL.M	0	:Y-COORDINATE	OF	WELL	HEAD																		
YWELL.M	0	:LONGITUDE																					
PDAT	.M	0	:Permanent	Datum																			
EPD	.M	0	:Elevation	of	Permanent	Datum	above	Mean	Sea	Level													
LMF	.M	0	:Logging	Measured	From	(Name	of	Logging	Elevation	Reference)													
APD	.M	0	:Elevation	of	Depth	Reference	(LMF)	above	Permanent	Datum													
#-----------------------------------------------------------------------------																							
~CURVE	INFORMATION																						
#MNEM.UNIT	API	CODE	DESCRIPTION																				
#----	-----	--------	-----------------------																				
DEPT	.m	:	DEPTH	{F10.3}																			
DTC	.us/ft	:	DTC	{F10.3}																			
vpvs	.API	:	vpvs	{F10.3}																			
DTs	.us/ft	:	DTs	{F10.3}																			
DTst	.us/ft	:	DTst	{F10.3}																			
BMOD	.MPa	:	BMOD	{F10.3}																			
BULK	.MPa	:	BULK	{F10.3}																			
DMMI	.g/cm3	:	DMMI	{F10.3}																			
DMMX	.g/cm3	:	DMMX	{F10.3}																			
FI	.%	:	FI	{F10.3}																			
FRACP	.MPa	:	FRACP	{F10.3}																			
POIS	.%	:	POIS	{F10.3}																			
pp	.MPa	:	pp	{F10.3}																			
RL	.MPa	:	RL	{F10.3}																			
RMSC	.g/cm3	:	RMSC	{F10.3}																			
SH1	.MPa	:	SH1	{F10.3}																			
SH2	.MPa	:	SH2	{F10.3}																			
SHV	.MPa	:	SHV	{F10.3}																			
SMOD	.MPa	:	SMOD	{F10.3}																			
SPOIS	.%	:	SPOIS	{F10.3}																			
ST	.MPa	:	ST	{F10.3}																			
SYMOD	.MPa	:	SYMOD	{F10.3}																			
YMOD	.MPa	:	YMOD	{F10.3}																			
#-----------------------------------------------------------------------------																							
#																							
#	INDEX	DTC	vpvs	DTs	DTst	BMOD	BULK	DMMI	DMMX	FI	FRACP	POIS	pp	RL	RMSC	SH1	SH2	SHV	SMOD	SPOIS	ST	SYMOD	YMOD
#																							
~ASCII	DATA	SECTION																					
# ...
	3744.88111	74.0146	1.82523	135.11111	215.52788	27446.66406	45753.67188	1.20626	2.30568	0.3594	88.28965	0.28562	51.14663	18293.16016	1.82547	105.22124	78.51273	97.50315	13730.25488	0.26438	5.17542	24667.08594	35303.82813
	3745.03351	73.91448	1.82755	135.11111	215.47995	27591.43164	45912.20703	1.20736	2.31133	0.36092	88.50066	0.28645	51.15066	18431.04492	1.82794	105.31152	78.60261	97.50719	13740.58008	0.2652	5.20998	24689.32031	35353.10547
	3745.18591	73.75275	1.8293	135.11111	215.37708	27798.88281	46123.52344	1.20892	2.32003	0.36337	88.82346	0.28778	51.14931	18636.56445	1.83195	105.45052	78.74111	97.50718	13743.47949	0.26652	5.25569	24709.17969	35397.11719
	3745.33831	73.55036	1.82868	134.38062	215.19141	27861.74805	46391.77734	1.20846	2.31287	0.36038	88.56411	0.28615	51.15335	18596.73438	1.82706	105.2851	78.57531	97.51122	13897.52246	0.26491	5.3199	24867.81836	35748.71094
	3745.49071	73.32813	1.81593	133.04514	214.92938	27723.27148	46595.69531	1.2059	2.29069	0.3525	87.75375	0.28185	51.16277	18287.05859	1.81438	104.84731	78.13726	97.51929	14154.31836	0.26063	5.37322	25110.85938	36287.36328
	3745.64311	73.11874	1.81077	132.44444	214.66495	27798.74023	46828.90625	1.20582	2.28658	0.35059	87.60641	0.2808	51.1668	18283.65625	1.81136	104.74379	78.03336	97.52332	14272.62598	0.25958	5.42844	25234.22266	36560.77734
	3745.79551	72.97583	1.81458	132.44444	214.52231	28004.32813	47049.45703	1.20732	2.29472	0.35283	87.90891	0.28203	51.16545	18481.76367	1.81491	104.87032	78.15939	97.52332	14283.84766	0.26081	5.47814	25263.03711	36624.64063
	3745.94791	72.91636	1.81106	131.95033	214.56276	27950.31641	47146.67188	1.20627	2.28536	0.34949	87.56855	0.28019	51.16949	18352.14063	1.80961	104.68545	77.97414	97.52735	14397.26465	0.25898	5.50308	25370.35156	36862.48047
	3746.10031	72.94787	1.80365	131.55556	214.73595	27806.1582	47126.19531	1.20471	2.27345	0.34554	87.13519	0.27801	51.17889	18146.14063	1.80342	104.47039	77.75883	97.53542	14490.02539	0.25681	5.50057	25448.95703	37036.69531
	3746.25271	73.04068	1.80085	131.4984	214.92535	27699.48047	47057.15234	1.20373	2.26703	0.34357	86.90304	0.27691	51.18294	18020.64648	1.80034	104.36288	77.65092	97.53947	14518.25195	0.25571	5.48543	25467.13477	37076.98047
	3746.40511	73.1128	1.80402	132.01062	215.03188	27849.01953	47120.69531	1.20529	2.27758	0.34692	87.29379	0.27877	51.18699	18213.17969	1.80557	104.55665	77.84431	97.54352	14453.75781	0.25757	5.49855	25417.09961	36966.08984
	3746.55751	73.13649	1.81103	132.44444	215.02373	28013.66211	47206.65625	1.20686	2.28829	0.35032	87.69071	0.28065	51.18565	18417.16602	1.81092	104.74891	78.03607	97.54352	14394.74414	0.25943	5.51656	25373.37695	36869.1875
	3746.70991	73.17143	1.81023	132.44444	214.93489	28015.48633	47240.66016	1.20676	2.28689	0.34977	87.64281	0.28035	51.18972	18402.89844	1.81006	104.72212	78.0089	97.54758	14418.88184	0.25913	5.52486	25397.3457	36922.30859
	3746.86231	73.26311	1.80815	132.44444	214.84819	27846.94727	47037.40234	1.20568	2.28128	0.34833	87.44012	0.27955	51.19919	18251.72266	1.80779	104.64902	77.93554	97.55572	14392.83984	0.25834	5.47831	25356.95117	36832.78125
	3747.01471	73.36041	1.81376	133.20271	214.82962	27830.77734	46729.12109	1.20683	2.29423	0.35334	87.9193	0.28231	51.20323	18381.60547	1.81573	104.93675	78.22289	97.55976	14173.75781	0.26109	5.40342	25139.29492	36350.38672
	3747.16711	73.42083	1.8222	133.77777	214.88983	27891.60156	46611.42578	1.20805	2.3052	0.35729	88.32564	0.28448	51.2019	18531.6875	1.82207	105.16061	78.44624	97.55977	14039.86914	0.26324	5.37313	25011.77539	36067.76563
	3747.31951	73.43819	1.82138	133.75488	215.0049	27864.08008	46590.93359	1.20782	2.30368	0.35683	88.27345	0.28422	51.20595	18500.65234	1.82133	105.13869	78.42393	97.56381	14045.14063	0.26299	5.36879	25014.69727	36074.23828
	3747.47191	73.43327	1.8275	134.32481	215.13892	28019.69141	46581.86328	1.2099	2.31834	0.3617	88.81553	0.28687	51.21536	18738.60742	1.82921	105.42214	78.70713	97.57189	13921.62793	0.26562	5.36233	24904.81445	35830.70313
	3747.62431	73.4054	1.84276	135.41719	215.25655	28371.98242	46647.90625	1.214	2.34704	0.37112	89.87339	0.29195	51.21941	19234.02148	1.84479	105.95971	79.24432	97.57594	13706.94238	0.27067	5.3671	24718.27734	35417.28125
	3747.77671	73.34394	1.85831	136.42155	215.33904	28787.47852	46838.66406	1.21819	2.37511	0.38011	90.90804	0.29672	51.21807	19761.88477	1.86002	106.46862	79.75272	97.57594	13538.38965	0.27542	5.39861	24580.11523	35111.07031
	3747.92911	73.26292	1.866	136.92882	215.39275	29111.69531	47083.13281	1.22103	2.39228	0.3853	91.54239	0.29945	51.22213	20125.97461	1.86901	106.76669	80.05041	97.57999	13478.5791	0.27814	5.44674	24543.33984	35029.5625
	3748.08151	73.24971	1.8651	136.50327	215.43687	29026.47461	47116.38672	1.21982	2.38311	0.38215	91.20911	0.2978	51.2262	19981.51758	1.86353	106.59232	79.87566	97.58406	13567.43457	0.27649	5.45963	24627.25	35215.53906
	3748.23391	73.36959	1.84614	135.22438	215.48747	28578.40625	47044.13281	1.21475	2.3467	0.37009	89.87524	0.29139	51.23568	19345.54297	1.84306	105.91798	79.20105	97.59221	13849.29492	0.27012	5.45995	24877.32813	35769.78906
	3748.38631	73.55608	1.8248	134.07991	215.53503	28049.36719	46848.96094	1.20916	2.30841	0.35776	88.47236	0.28473	51.23975	18649.57031	1.82283	105.22454	78.50723	97.59628	14099.69629	0.2635	5.42763	25084.38086	36228.67969
	3748.53871	73.73408	1.8219	134.44467	215.5576	27905.17188	46589.40234	1.2085	2.30753	0.3581	88.44386	0.28492	51.23842	18563.05664	1.82337	105.24384	78.52602	97.59628	14013.17285	0.26368	5.36736	24986.4043	36011.53125
	3748.69111	73.93894	1.84449	136.67297	215.54276	28195.0957	46238.85156	1.21384	2.35073	0.37331	90.03454	0.29311	51.2425	19173.2168	1.84846	106.10879	79.39058	97.60036	13532.81641	0.27183	5.27064	24529.53125	34998.96094
	3748.84351	74.12825	1.86605	138.39532	215.48181	28411.91211	46013.29297	1.21789	2.38168	0.38413	91.17508	0.29884	51.25197	19611.22266	1.86697	106.72975	80.01128	97.6085	13201.03516	0.27753	5.2039	24210.57813	34292.0625
	3748.99591	74.13263	1.86766	138.40776	215.34427	28449.80859	46072.90625	1.21808	2.38218	0.38417	91.19734	0.29886	51.25605	19638.25977	1.86703	106.73584	80.01698	97.61258	13217.32324	0.27754	5.21734	24229.87695	34334.83203
	3749.14831	73.85008	1.85603	136.9117	215.06195	28402.85938	46405.01563	1.2157	2.36152	0.37653	90.44195	0.29483	51.25471	19401.78125	1.85391	106.30392	79.58456	97.61258	13501.61719	0.27354	5.30426	24514.01953	34964.58203
	3749.30071	73.32517	1.8464	134.35545	214.54683	28277.41797	46904.78516	1.21175	2.32624	0.3636	89.14909	0.2879	51.25878	18963.73633	1.83232	105.57607	78.85633	97.61665	13970.52441	0.26665	5.43501	24974.59375	35985.35547
	3749.45311	72.60894	1.8138	131.54852	213.80217	28356.66406	47755.10156	1.20914	2.29394	0.35083	87.96587	0.28093	51.26823	18657.44531	1.81174	104.86136	78.14136	97.62476	14548.82813	0.25972	5.64513	25555.1875	37272.13672
	3749.60551	71.81664	1.80141	129.32289	213.00342	28722.70703	48780.58594	1.20945	2.28014	0.34382	87.4625	0.27705	51.27228	18693.76563	1.80074	104.46867	77.74828	97.62881	15043.41113	0.25585	5.89446	26074.17578	38422.375
	3749.75791	71.11452	1.8002	128.0513	212.42093	29309.36133	49780.87109	1.2124	2.28709	0.34376	87.72126	0.27701	51.27095	19073.60547	1.80063	104.46508	77.74419	97.62881	15353.63281	0.25582	6.13872	26431.16992	39213.58594
	3749.91031	70.72726	1.8021	127.45638	212.15343	29710.95117	50406.40625	1.21468	2.29449	0.34469	87.99694	0.27753	51.27499	19363.22461	1.80208	104.52187	77.8006	97.63286	15521.59082	0.25633	6.29345	26631.96875	39658.62109
	3750.06271	70.744	1.79552	126.91779	212.12904	29524.66797	50405.74609	1.21275	2.27887	0.33949	87.42628	0.27463	51.27905	19084.12695	1.79404	104.232	77.51035	97.63692	15660.80957	0.25345	6.29577	26751.49805	39923.53125
	3750.21511	70.97688	1.7833	126.48249	212.2356	29031.63477	50043.07031	1.20876	2.2525	0.33159	86.4606	0.27018	51.28851	18525.91797	1.78202	103.793	77.07108	97.64503	15758.57617	0.24902	6.20752	26800.63477	40032.43359
	3750.36751	71.1518	1.77487	126.24019	212.42694	28678.71875	49751.46484	1.2059	2.23464	0.32639	85.80779	0.26722	51.29256	18142.3457	1.77424	103.50248	76.78018	97.64909	15804.56055	0.24607	6.13561	26811.08594	40055.59766
