~VERSION	INFORMATION																						
VERS.	2	:Log	ASCII	Standard	-	VERSION	2																
WRAP.	NO	:One	Line	per	depth	step																	
PROD.	YuXH	:LAS	Producer																				
PROG.	YuXH2LAS	1	:LAS	Program	name	and	version																
CREA.	8/19/2013	15:01	:LAS	Creation	date	{YYYY/MM/DD	hh:mm}																
SOURCE.		:Data	File	Name																			
#--------------------------------------------------																							
~WELL	INFORMATION																						
#MENM.UNIT	DATA	DESCRIPTION																					
#----	------	--------------	-----------------------------																				
STRT	.m	2980.8999	:START	DEPTH																			
STOP	.m	4420.1099	:STOP	DEPTH																			
STEP	.m	0.1524	:STEP																				
NULL	.	-9999.9	:NULL	VALUE																			
COMP	.	unknown	:COMPANY																				
WELL	.	unknown	:WELL																				
FLD	.	unknown	:FIELD																				
LOC	.	unknown	:LOCATION																				
CNTY	.	unknown	:COUNTY																				
STAT	.	unknown	:STATE																				
CTRY	.	unknown	:COUNTRY																				
API	.	unknown	:API	NUMBER																			
UWI	.	unknown	:UNIQUE	WELL	ID																		
DATE	.	unknown	:LOG	DATE																			
SRVC	.	YuXH	:SERVICE	COMPANY																			
GDAT	.	unknown	:GeoDetic	Datum																			
#-----------------------------------------------------------------------------																							
~PARAMETER	INFORMATION																						
#MNEM.UNIT	VALUE	DESCRIPTION																					
#----	-----	--------------------	------------------------																				
RUN	.NONE	1	:RUN	NUMBER																			
LATI	.DEG	0	:LATITUDE																				
LONG	.DEG	0	:X-COORDINATE	OF	WELL	HEAD																	
XWELL.M	0	:Y-COORDINATE	OF	WELL	HEAD																		
YWELL.M	0	:LONGITUDE																					
PDAT	.M	0	:Permanent	Datum																			
EPD	.M	0	:Elevation	of	Permanent	Datum	above	Mean	Sea	Level													
LMF	.M	0	:Logging	Measured	From	(Name	of	Logging	Elevation	Reference)													
APD	.M	0	:Elevation	of	Depth	Reference	(LMF)	above	Permanent	Datum													
#-----------------------------------------------------------------------------																							
~CURVE	INFORMATION																						
#MNEM.UNIT	API	CODE	DESCRIPTION																				
#----	-----	--------	-----------------------																				
DEPT	.m	:	DEPTH	{F10.3}																			
DTC	.us/ft	:	DTC	{F10.3}																			
vpvs	.API	:	vpvs	{F10.3}																			
DTs	.us/ft	:	DTs	{F10.3}																			
DTst	.us/ft	:	DTst	{F10.3}																			
BMOD	.MPa	:	BMOD	{F10.3}																			
BULK	.MPa	:	BULK	{F10.3}																			
DMMI	.g/cm3	:	DMMI	{F10.3}																			
DMMX	.g/cm3	:	DMMX	{F10.3}																			
FI	.%	:	FI	{F10.3}																			
FRACP	.MPa	:	FRACP	{F10.3}																			
POIS	.%	:	POIS	{F10.3}																			
pp	.MPa	:	pp	{F10.3}																			
RL	.MPa	:	RL	{F10.3}																			
RMSC	.g/cm3	:	RMSC	{F10.3}																			
SH1	.MPa	:	SH1	{F10.3}																			
SH2	.MPa	:	SH2	{F10.3}																			
SHV	.MPa	:	SHV	{F10.3}																			
SMOD	.MPa	:	SMOD	{F10.3}																			
SPOIS	.%	:	SPOIS	{F10.3}																			
ST	.MPa	:	ST	{F10.3}																			
SYMOD	.MPa	:	SYMOD	{F10.3}																			
YMOD	.MPa	:	YMOD	{F10.3}																			
#-----------------------------------------------------------------------------																							
#																							
#	INDEX	DTC	vpvs	DTs	DTst	BMOD	BULK	DMMI	DMMX	FI	FRACP	POIS	pp	RL	RMSC	SH1	SH2	SHV	SMOD	SPOIS	ST	SYMOD	YMOD
#																							
~ASCII	DATA	SECTION																					
# ...
	4031.39312	66.98229	1.79835	120.41016	212.25064	32614.04883	55523.01953	1.26169	2.33407	0.34183	96.16586	0.27594	58.72951	21159.5625	1.79764	111.99023	84.56584	105.08614	17181.72852	0.25475	7.63775	28521.13867	43845.60547
	4031.54552	67.10102	1.79614	120.46936	212.09273	32424.04492	55299.07422	1.26047	2.32802	0.34034	95.93036	0.2751	58.72826	20986.53125	1.79534	111.90384	84.47898	105.08613	17156.26953	0.25392	7.57706	28478.93945	43752.08203
	4031.69792	67.18468	1.79364	120.50556	211.83595	32291.36719	55146.42969	1.25967	2.32371	0.33923	95.76393	0.27449	58.73228	20863.83594	1.79365	111.84387	84.41863	105.09014	17141.29688	0.2533	7.53581	28452.15625	43692.72266
	4031.85032	67.18346	1.79373	120.51946	211.51985	32309.48438	55166.94531	1.25988	2.32442	0.33939	95.79552	0.27457	58.74153	20880.75195	1.79389	111.86102	84.43549	105.09815	17143.0957	0.25339	7.54135	28455.57813	43700.30469
	4032.00272	67.12283	1.79494	120.5203	211.22495	32485.27734	55395.86719	1.26092	2.32919	0.34045	95.98743	0.27517	58.74554	21029.98438	1.79552	111.92676	84.50085	105.10217	17182.93945	0.25398	7.60355	28510.61523	43822.28516
	4032.15512	67.06094	1.79665	120.51936	210.98677	32611.34961	55539.25391	1.26171	2.33332	0.34152	96.15446	0.27576	58.74956	21147.39453	1.79716	111.99273	84.56644	105.10619	17195.92969	0.25457	7.64239	28534.80078	43875.88672
	4032.30752	67.04356	1.7975	120.52019	210.79826	32680.26758	55635.82031	1.26204	2.33484	0.34183	96.218	0.27594	58.74832	21202.49219	1.79764	112.01083	84.58407	105.10619	17216.66211	0.25475	7.66881	28561.35352	43934.73438
	4032.45992	67.04573	1.79768	120.52681	210.70062	32692.76953	55655.33984	1.26213	2.33506	0.34185	96.23059	0.27595	58.75235	21211.48438	1.79768	112.01646	84.58933	105.11021	17221.92773	0.25476	7.67418	28567.64258	43948.67578
	4032.61232	67.04525	1.7977	120.52509	210.70305	32770.45313	55788.14063	1.26262	2.33615	0.34184	96.27723	0.27595	58.76165	21261.60742	1.79767	112.02412	84.59669	105.11827	17263.26563	0.25476	7.71085	28615.16797	44054.00781
	4032.76472	67.04751	1.7974	120.49511	210.72348	32768.69922	55807.30859	1.26259	2.33536	0.34151	96.2496	0.27576	58.76569	21249.39453	1.79716	112.00918	84.58137	105.12231	17278.95703	0.25457	7.71634	28630.37695	44087.71094
	4032.91712	67.07032	1.79619	120.4314	210.61824	32659.51367	55689.47266	1.26185	2.33147	0.3405	96.09954	0.2752	58.76444	21144.53516	1.7956	111.95052	84.52224	105.12231	17272.46875	0.25401	7.68433	28614.0918	44051.62109
	4033.06952	67.10285	1.79353	120.34303	210.35031	32560.58984	55616.51172	1.26119	2.32685	0.33908	95.92049	0.2744	58.76848	21032.62695	1.79341	111.87203	84.44337	105.12634	17291.94336	0.25322	7.66491	28624.07813	44073.75391
	4033.22192	67.09144	1.79253	120.23879	210.03011	32671.75195	55861.52734	1.26177	2.32648	0.33827	95.90944	0.27394	58.7778	21076.86328	1.79216	111.83289	84.40394	105.13442	17392.33008	0.25277	7.73295	28732.35742	44313.73438
	4033.37432	67.03781	1.79201	120.12832	209.79866	32784.69922	56064.16016	1.26236	2.32762	0.33813	95.95824	0.27387	58.78185	21144.96875	1.79195	111.8289	84.39957	105.13847	17459.5957	0.25269	7.78922	28808.44922	44482.37891
	4033.52672	66.97639	1.79199	120.02034	209.66742	32789.14453	56070.37891	1.26233	2.32763	0.33815	95.96214	0.27388	58.78061	21148.5293	1.79198	111.83021	84.40041	105.13848	17460.92383	0.2527	7.79094	28810.1543	44486.16016
	4033.67912	66.92268	1.79182	119.91127	209.58945	32734.85156	55986.03906	1.26205	2.32663	0.33802	95.92639	0.27381	58.78466	21109.25586	1.79179	111.82706	84.39688	105.14252	17438.39258	0.25263	7.76757	28783.14844	44426.30078
	4033.83152	66.85408	1.79208	119.81671	209.58949	32631.67773	55790.82422	1.26163	2.32605	0.3383	95.90711	0.27396	58.79395	21052.10352	1.79221	111.85128	84.42081	105.15057	17369.36133	0.25278	7.71338	28706.23438	44255.83984
	4033.98392	66.77689	1.79306	119.76671	209.77824	32738.82617	55915.50391	1.2623	2.32947	0.33916	96.04597	0.27445	58.79795	21150.48633	1.79354	111.90549	84.47463	105.15458	17382.50781	0.25326	7.7475	28728.93555	44306.15234
	4034.13632	66.73024	1.79458	119.7815	210.16235	32814.32813	55979.32813	1.26281	2.33271	0.34012	96.17761	0.27498	58.80198	21231.83008	1.79501	111.96535	84.53413	105.1586	17373.74805	0.2538	7.76473	28727.28906	44302.5
	4034.28872	66.7569	1.79529	119.84667	210.58731	32679.375	55737.73047	1.26207	2.33126	0.34029	96.12399	0.27508	58.80073	21150.19531	1.79527	111.97525	84.54356	105.15859	17293.76758	0.25389	7.69777	28636.73828	44101.8125
	4034.44112	66.84478	1.79417	119.9174	210.8204	32500.58203	55489.64844	1.26107	2.32697	0.33944	95.95785	0.2746	58.80473	21006.04883	1.79397	111.93017	84.49809	105.1626	17241.80078	0.25342	7.62981	28569.56836	43952.94531
	4034.59352	66.94031	1.79272	119.96867	210.78304	32465.34961	55508.14453	1.26084	2.32386	0.33827	95.83868	0.27395	58.81396	20943.95117	1.79217	111.8703	84.43793	105.17059	17282.0957	0.25277	7.63542	28605.69336	44033.00781
	4034.74592	66.98838	1.79155	120.00532	210.58208	32504.52539	55607.69922	1.26101	2.32323	0.33779	95.81743	0.27368	58.81797	20952.93945	1.79143	111.84636	84.41361	105.1746	17327.37891	0.2525	7.66304	28653.51367	44138.99609
	4034.89832	66.96223	1.79205	120.03033	210.34346	32506.71875	55564.17188	1.26104	2.32482	0.33849	95.88359	0.27407	58.81674	20977.99219	1.79251	111.8872	84.45399	105.17461	17293.08789	0.25289	7.65075	28620.24023	44065.25
	4035.05072	66.88655	1.79388	120.03651	210.12454	32582.22852	55600.09766	1.2616	2.32905	0.33987	96.05453	0.27484	58.82075	21073.29297	1.79463	111.97152	84.53793	105.17861	17263.4043	0.25366	7.66001	28598.16602	44016.32422
	4035.20312	66.79736	1.79675	120.03499	210.02904	32723.37305	55737.01953	1.2626	2.3346	0.34141	96.27761	0.27571	58.83	21216.55078	1.797	112.06905	84.63518	105.18662	17260.23242	0.25452	7.69697	28607.92773	44037.96094
	4035.35552	66.73716	1.79845	120.06806	210.12721	32879.20313	55909.97266	1.26357	2.33982	0.34278	96.48798	0.27647	58.834	21363.81836	1.79912	112.15263	84.71838	105.19063	17273.07617	0.25528	7.74401	28634.60938	44097.09766
	4035.50792	66.71968	1.80012	120.12971	210.35336	33052.10547	56143.05859	1.26449	2.34407	0.34368	96.65939	0.27697	58.83276	21506.62695	1.80051	112.20499	84.77026	105.19063	17318.2168	0.25577	7.80814	28694.43359	44229.68359
	4035.66032	66.72693	1.80082	120.16663	210.49385	33073.62109	56164.02344	1.26464	2.34489	0.34391	96.69553	0.2771	58.83679	21528.41992	1.80087	112.22248	84.78738	105.19466	17317.80078	0.2559	7.81382	28695.95703	44233.05859
	4035.81272	66.72607	1.8003	120.14052	210.41685	33035.19141	56114.78516	1.26451	2.34394	0.34367	96.6618	0.27697	58.84607	21495.39258	1.8005	112.21684	84.78144	105.2027	17309.69531	0.25577	7.80028	28684.55664	44207.79297
	4035.96512	66.69643	1.80023	120.0667	210.19583	33035.92188	56129.39063	1.26451	2.34349	0.34347	96.64765	0.27686	58.85009	21489.1875	1.8002	112.20948	84.7737	105.20672	17320.10156	0.25566	7.80447	28694.82813	44230.55859
	4036.11752	66.64661	1.8	119.95509	209.98495	33055.48438	56176.97656	1.2646	2.34325	0.34326	96.64181	0.27674	58.85411	21494.74023	1.79987	112.20129	84.76514	105.21073	17341.11914	0.25554	7.81785	28717.20117	44280.14063
	4036.26992	66.62384	1.79951	119.87325	209.87328	33060.70703	56212.65625	1.26453	2.34229	0.34287	96.60756	0.27652	58.85287	21484.73047	1.79925	112.17844	84.74181	105.21073	17363.96484	0.25532	7.82803	28740.07031	44330.82813
	4036.42232	66.65158	1.79853	119.84695	209.82527	32977.72266	56121.56641	1.26403	2.33949	0.34213	96.50041	0.27611	58.85689	21405.80469	1.79811	112.13966	84.70266	105.21475	17357.88086	0.25492	7.80313	28726.61328	44301.00391
	4036.57472	66.71172	1.7969	119.86061	209.75119	32876.11328	56010.62891	1.2635	2.33614	0.34121	96.3712	0.27559	58.86615	21308.85547	1.7967	112.09452	84.65723	105.22277	17350.88672	0.25441	7.77284	28710.55078	44265.40625
	4036.72712	66.75659	1.7957	119.85099	209.66708	32772.92969	55894.09375	1.26289	2.33275	0.34034	96.24072	0.2751	58.87015	21212.3457	1.79534	112.04767	84.61	105.22678	17340.87305	0.25392	7.74099	28691.35352	44222.85938
	4036.87952	66.74298	1.79514	119.80857	209.66628	32753.44727	55872.69922	1.26271	2.33198	0.34016	96.21422	0.27501	58.86892	21193.82031	1.79507	112.03763	84.59949	105.22678	17339.44141	0.25382	7.73516	28688.17383	44215.8125
